{
"type": "FeatureCollection",
"crs": { "type": "name", "properties": { "name": "urn:ogc:def:crs:OGC:1.3:CRS84" } },
"features": [
{ "type": "Feature", "properties": { "count": 95, "timestamp": "2023-03-14", "city": "South Michaelmouth", "state": "IN", "address": "98036 Dawn Spur", "year": 2022, "interdiction_date": "2022-08-07", "location_id": "shared_2022_48" }, "geometry": { "type": "Point", "coordinates": [ -99.88628554452535, 38.470823136882231 ] } },
{ "type": "Feature", "properties": { "count": 4, "timestamp": "2024-11-14", "city": "Donnaberg", "state": "MH", "address": "954 Cook Way Suite 071", "year": 2022, "interdiction_date": "2022-07-05", "location_id": "shared_2022_193" }, "geometry": { "type": "Point", "coordinates": [ -98.030501997091307, 27.973597832014711 ] } },
{ "type": "Feature", "properties": { "count": 4, "timestamp": "2021-12-01", "city": "New Linda", "state": "LA", "address": "9682 Clarence Cliff Suite 116", "year": 2020, "interdiction_date": "2020-01-27", "location_id": "shared_2020_243" }, "geometry": { "type": "Point", "coordinates": [ -71.348094697774627, 44.680652658083531 ] } },
{ "type": "Feature", "properties": { "count": 70, "timestamp": "2020-10-10", "city": "North Deniseside", "state": "RI", "address": "21992 Kari Islands Apt. 191", "year": 2020, "interdiction_date": "2020-01-24", "location_id": "shared_2020_36" }, "geometry": { "type": "Point", "coordinates": [ -73.977555601957903, 44.861976835773646 ] } },
{ "type": "Feature", "properties": { "count": 1, "timestamp": "2024-11-24", "city": "Chandlerview", "state": "IA", "address": "7337 Baker Crossroad Apt. 638", "year": 2025, "interdiction_date": "2025-01-14", "location_id": "shared_2025_53" }, "geometry": { "type": "Point", "coordinates": [ -80.811635121279593, 32.417315317273307 ] } },
{ "type": "Feature", "properties": { "count": 20, "timestamp": "2025-03-20", "city": "Davismouth", "state": "FL", "address": "5573 Tommy Land", "year": 2025, "interdiction_date": "2025-10-15", "location_id": "shared_2025_51" }, "geometry": { "type": "Point", "coordinates": [ -86.83086810288097, 41.692619082115286 ] } },
{ "type": "Feature", "properties": { "count": 78, "timestamp": "2021-10-26", "city": "Jonesfort", "state": "NH", "address": "466 Oconnor Cove", "year": 2022, "interdiction_date": "2022-11-18", "location_id": "shared_2022_104" }, "geometry": { "type": "Point", "coordinates": [ -102.790470018449071, 34.007437769274219 ] } },
{ "type": "Feature", "properties": { "count": 71, "timestamp": "2023-05-30", "city": "Farrellhaven", "state": "MT", "address": "992 Ronald Cape Apt. 006", "year": 2025, "interdiction_date": "2025-04-17", "location_id": "shared_2025_221" }, "geometry": { "type": "Point", "coordinates": [ -97.770661426980737, 30.80110203660783 ] } },
{ "type": "Feature", "properties": { "count": 47, "timestamp": "2020-10-02", "city": "Lake Theresaborough", "state": "ID", "address": "260 Vincent Alley Apt. 901", "year": 2021, "interdiction_date": "2021-08-16", "location_id": "shared_2021_253" }, "geometry": { "type": "Point", "coordinates": [ -99.611979925280764, 47.900755625994563 ] } },
{ "type": "Feature", "properties": { "count": 85, "timestamp": "2020-10-29", "city": "South Judy", "state": "RI", "address": "2244 Scott Oval", "year": 2024, "interdiction_date": "2024-02-20", "location_id": "shared_2024_316" }, "geometry": { "type": "Point", "coordinates": [ -123.801102296779092, 41.182595009393552 ] } },
{ "type": "Feature", "properties": { "count": 35, "timestamp": "2021-07-12", "city": "Adamshire", "state": "WI", "address": "94011 Chambers Alley", "year": 2022, "interdiction_date": "2022-11-25", "location_id": "shared_2022_370" }, "geometry": { "type": "Point", "coordinates": [ -123.972883507815922, 41.409724680595872 ] } },
{ "type": "Feature", "properties": { "count": 78, "timestamp": "2024-10-30", "city": "Lake Michelle", "state": "VI", "address": "76082 Brian Pike", "year": 2022, "interdiction_date": "2022-11-06", "location_id": "shared_2022_135" }, "geometry": { "type": "Point", "coordinates": [ -98.180001123514856, 39.977162941298403 ] } },
{ "type": "Feature", "properties": { "count": 82, "timestamp": "2022-03-29", "city": "Rachelborough", "state": "PA", "address": "539 Brooke Corner", "year": 2022, "interdiction_date": "2022-05-12", "location_id": "shared_2022_12" }, "geometry": { "type": "Point", "coordinates": [ -86.20276541302286, 38.218974989218239 ] } },
{ "type": "Feature", "properties": { "count": 99, "timestamp": "2023-08-20", "city": "Parkermouth", "state": "SD", "address": "160 Wall Fields Apt. 197", "year": 2023, "interdiction_date": "2023-05-15", "location_id": "shared_2023_1" }, "geometry": { "type": "Point", "coordinates": [ -114.904109303555217, 41.643074568313153 ] } },
{ "type": "Feature", "properties": { "count": 51, "timestamp": "2020-10-26", "city": "Williamview", "state": "VT", "address": "8014 William Fork", "year": 2023, "interdiction_date": "2023-01-05", "location_id": "shared_2023_222" }, "geometry": { "type": "Point", "coordinates": [ -94.582103730085947, 45.122000501220171 ] } },
{ "type": "Feature", "properties": { "count": 55, "timestamp": "2024-11-10", "city": "East Rebecca", "state": "CT", "address": "968 Laurie Lock", "year": 2025, "interdiction_date": "2025-12-22", "location_id": "shared_2025_7" }, "geometry": { "type": "Point", "coordinates": [ -74.01957914916747, 43.139738503636323 ] } },
{ "type": "Feature", "properties": { "count": 18, "timestamp": "2020-09-17", "city": "Grayland", "state": "NE", "address": "36972 Hines Fall", "year": 2022, "interdiction_date": "2022-10-03", "location_id": "shared_2022_128" }, "geometry": { "type": "Point", "coordinates": [ -115.760186794290973, 35.171511835210865 ] } },
{ "type": "Feature", "properties": { "count": 15, "timestamp": "2024-07-14", "city": "South Robertberg", "state": "NV", "address": "02353 Steven Springs", "year": 2021, "interdiction_date": "2021-09-21", "location_id": "shared_2021_73" }, "geometry": { "type": "Point", "coordinates": [ -81.736138910972102, 29.98197242720433 ] } },
{ "type": "Feature", "properties": { "count": 60, "timestamp": "2020-05-22", "city": "South Rhondaton", "state": "KY", "address": "221 Hernandez Crossroad Apt. 722", "year": 2022, "interdiction_date": "2022-07-03", "location_id": "shared_2022_158" }, "geometry": { "type": "Point", "coordinates": [ -116.069403666201424, 46.382892625706397 ] } },
{ "type": "Feature", "properties": { "count": 2, "timestamp": "2025-02-11", "city": "Lake Rebeccafurt", "state": "PW", "address": "47509 Brittany Shore Apt. 387", "year": 2023, "interdiction_date": "2023-05-12", "location_id": "shared_2023_45" }, "geometry": { "type": "Point", "coordinates": [ -114.280624831331835, 36.929305343856534 ] } },
{ "type": "Feature", "properties": { "count": 69, "timestamp": "2023-03-18", "city": "Wesleyfort", "state": "WA", "address": "7957 Seth Hollow Apt. 987", "year": 2024, "interdiction_date": "2024-10-11", "location_id": "shared_2024_7" }, "geometry": { "type": "Point", "coordinates": [ -107.395514167941457, 41.868561748773352 ] } },
{ "type": "Feature", "properties": { "count": 93, "timestamp": "2022-02-19", "city": "Guerreroshire", "state": "CO", "address": "4935 Jeanette Neck", "year": 2025, "interdiction_date": "2025-10-16", "location_id": "shared_2025_333" }, "geometry": { "type": "Point", "coordinates": [ -92.516756214384714, 47.558087397905588 ] } },
{ "type": "Feature", "properties": { "count": 23, "timestamp": "2021-10-01", "city": "Saraborough", "state": "NH", "address": "731 Young Port Apt. 247", "year": 2024, "interdiction_date": "2024-05-15", "location_id": "shared_2024_77" }, "geometry": { "type": "Point", "coordinates": [ -103.491807836656349, 41.088254809279412 ] } },
{ "type": "Feature", "properties": { "count": 39, "timestamp": "2024-08-12", "city": "West Markfurt", "state": "OH", "address": "552 Shelley Rue", "year": 2020, "interdiction_date": "2020-04-06", "location_id": "shared_2020_159" }, "geometry": { "type": "Point", "coordinates": [ -102.825592060003487, 43.847303198514922 ] } },
{ "type": "Feature", "properties": { "count": 48, "timestamp": "2022-01-06", "city": "Port Zacharyburgh", "state": "WV", "address": "7586 Matthew Light", "year": 2020, "interdiction_date": "2020-09-03", "location_id": "shared_2020_281" }, "geometry": { "type": "Point", "coordinates": [ -100.426144267570407, 30.172686421037888 ] } },
{ "type": "Feature", "properties": { "count": 15, "timestamp": "2020-05-11", "city": "Reginashire", "state": "NE", "address": "96222 Jonathan Parks Suite 447", "year": 2024, "interdiction_date": "2024-11-13", "location_id": "shared_2024_227" }, "geometry": { "type": "Point", "coordinates": [ -113.678424144322534, 47.977449010708064 ] } },
{ "type": "Feature", "properties": { "count": 40, "timestamp": "2023-06-07", "city": "Williamsshire", "state": "KS", "address": "18137 Flores Dale", "year": 2020, "interdiction_date": "2020-06-15", "location_id": "shared_2020_252" }, "geometry": { "type": "Point", "coordinates": [ -92.706548904712577, 45.915555422317205 ] } },
{ "type": "Feature", "properties": { "count": 11, "timestamp": "2023-08-17", "city": "Lake Alejandro", "state": "PA", "address": "775 Michelle Light Suite 626", "year": 2021, "interdiction_date": "2021-07-26", "location_id": "shared_2021_13" }, "geometry": { "type": "Point", "coordinates": [ -86.235541194707409, 33.947336592694086 ] } },
{ "type": "Feature", "properties": { "count": 98, "timestamp": "2020-06-27", "city": "Randybury", "state": "WV", "address": "0738 Oconnell Stream Apt. 965", "year": 2023, "interdiction_date": "2023-10-02", "location_id": "shared_2023_241" }, "geometry": { "type": "Point", "coordinates": [ -87.343727044978721, 42.527036301777358 ] } },
{ "type": "Feature", "properties": { "count": 61, "timestamp": "2020-05-13", "city": "Christopherborough", "state": "PW", "address": "516 Hogan Meadow", "year": 2021, "interdiction_date": "2021-06-13", "location_id": "shared_2021_311" }, "geometry": { "type": "Point", "coordinates": [ -80.545719638018085, 34.293979563788767 ] } },
{ "type": "Feature", "properties": { "count": 97, "timestamp": "2021-05-17", "city": "Matthewstad", "state": "AK", "address": "548 Steven Shoals Suite 827", "year": 2025, "interdiction_date": "2025-02-20", "location_id": "shared_2025_89" }, "geometry": { "type": "Point", "coordinates": [ -93.384599595669101, 30.008868209139219 ] } },
{ "type": "Feature", "properties": { "count": 52, "timestamp": "2020-04-09", "city": "South Andrea", "state": "AL", "address": "597 Amanda Mountain", "year": 2025, "interdiction_date": "2025-02-22", "location_id": "shared_2025_397" }, "geometry": { "type": "Point", "coordinates": [ -106.25867684389722, 40.764323815989144 ] } },
{ "type": "Feature", "properties": { "count": 67, "timestamp": "2021-07-08", "city": "Morenoland", "state": "PA", "address": "0512 Barbara Stream", "year": 2023, "interdiction_date": "2023-02-02", "location_id": "shared_2023_226" }, "geometry": { "type": "Point", "coordinates": [ -111.723059956201226, 47.983136509080133 ] } },
{ "type": "Feature", "properties": { "count": 10, "timestamp": "2020-04-10", "city": "Hoodland", "state": "AR", "address": "6323 Gaines Canyon Suite 419", "year": 2025, "interdiction_date": "2025-03-12", "location_id": "shared_2025_85" }, "geometry": { "type": "Point", "coordinates": [ -94.451884795556751, 37.213567240743231 ] } },
{ "type": "Feature", "properties": { "count": 74, "timestamp": "2024-06-11", "city": "North Maryhaven", "state": "KY", "address": "0276 Angela Estates", "year": 2025, "interdiction_date": "2025-02-14", "location_id": "shared_2025_31" }, "geometry": { "type": "Point", "coordinates": [ -84.864964314110978, 42.855182044364447 ] } },
{ "type": "Feature", "properties": { "count": 53, "timestamp": "2021-02-15", "city": "Jessicaland", "state": "PR", "address": "1455 Fernandez Junction Apt. 743", "year": 2022, "interdiction_date": "2022-04-27", "location_id": "shared_2022_266" }, "geometry": { "type": "Point", "coordinates": [ -88.044342801015716, 47.83079296042132 ] } },
{ "type": "Feature", "properties": { "count": 46, "timestamp": "2023-02-27", "city": "Zacharyport", "state": "CT", "address": "6048 Weber Trace", "year": 2025, "interdiction_date": "2025-11-21", "location_id": "shared_2025_326" }, "geometry": { "type": "Point", "coordinates": [ -80.796252128654814, 37.641546639200769 ] } },
{ "type": "Feature", "properties": { "count": 7, "timestamp": "2024-10-06", "city": "North Tiffanyville", "state": "IN", "address": "067 John Mountains Suite 543", "year": 2021, "interdiction_date": "2021-09-17", "location_id": "shared_2021_228" }, "geometry": { "type": "Point", "coordinates": [ -109.44828012902164, 46.834187529227179 ] } },
{ "type": "Feature", "properties": { "count": 14, "timestamp": "2021-01-10", "city": "Paulbury", "state": "AS", "address": "41051 Glenn Row", "year": 2022, "interdiction_date": "2022-05-09", "location_id": "shared_2022_284" }, "geometry": { "type": "Point", "coordinates": [ -117.624970709982762, 36.512065128777991 ] } },
{ "type": "Feature", "properties": { "count": 18, "timestamp": "2020-07-22", "city": "East George", "state": "HI", "address": "0512 Rodriguez Junctions Apt. 000", "year": 2022, "interdiction_date": "2022-04-09", "location_id": "shared_2022_219" }, "geometry": { "type": "Point", "coordinates": [ -84.408744594971466, 46.411824878922502 ] } },
{ "type": "Feature", "properties": { "count": 2, "timestamp": "2020-11-27", "city": "Michellebury", "state": "WA", "address": "59253 Wilson Locks", "year": 2025, "interdiction_date": "2025-11-02", "location_id": "shared_2025_71" }, "geometry": { "type": "Point", "coordinates": [ -100.0460385160779, 31.34912609365324 ] } },
{ "type": "Feature", "properties": { "count": 52, "timestamp": "2022-10-01", "city": "Smithchester", "state": "NE", "address": "558 Glass Court", "year": 2020, "interdiction_date": "2020-07-21", "location_id": "shared_2020_129" }, "geometry": { "type": "Point", "coordinates": [ -102.92163419533378, 32.145126309681984 ] } },
{ "type": "Feature", "properties": { "count": 50, "timestamp": "2022-07-26", "city": "North Tracyburgh", "state": "ME", "address": "74819 Hobbs Lakes", "year": 2020, "interdiction_date": "2020-12-25", "location_id": "shared_2020_163" }, "geometry": { "type": "Point", "coordinates": [ -70.116196716972553, 45.469937282880537 ] } },
{ "type": "Feature", "properties": { "count": 37, "timestamp": "2024-08-19", "city": "Jacobstad", "state": "OH", "address": "20096 Michelle Ports Apt. 086", "year": 2023, "interdiction_date": "2023-10-07", "location_id": "shared_2023_279" }, "geometry": { "type": "Point", "coordinates": [ -93.550802843169507, 43.805342248312726 ] } },
{ "type": "Feature", "properties": { "count": 38, "timestamp": "2021-12-23", "city": "Michelleside", "state": "SC", "address": "0541 Desiree Junction Apt. 468", "year": 2025, "interdiction_date": "2025-03-01", "location_id": "shared_2025_270" }, "geometry": { "type": "Point", "coordinates": [ -91.690959456038257, 41.07972822371616 ] } },
{ "type": "Feature", "properties": { "count": 70, "timestamp": "2022-05-31", "city": "Stephenchester", "state": "DE", "address": "5471 Morgan Mills", "year": 2024, "interdiction_date": "2024-07-27", "location_id": "shared_2024_20" }, "geometry": { "type": "Point", "coordinates": [ -98.471206281592458, 36.381196439437829 ] } },
{ "type": "Feature", "properties": { "count": 24, "timestamp": "2020-08-22", "city": "South Edwardstad", "state": "ME", "address": "19340 Maria Harbor Suite 473", "year": 2025, "interdiction_date": "2025-05-15", "location_id": "shared_2025_124" }, "geometry": { "type": "Point", "coordinates": [ -112.601228067923756, 35.670808428475617 ] } },
{ "type": "Feature", "properties": { "count": 32, "timestamp": "2024-07-27", "city": "South Melissabury", "state": "AR", "address": "13999 Laurie Road", "year": 2020, "interdiction_date": "2020-06-23", "location_id": "shared_2020_330" }, "geometry": { "type": "Point", "coordinates": [ -90.291778038368989, 36.102325653137214 ] } },
{ "type": "Feature", "properties": { "count": 54, "timestamp": "2025-01-02", "city": "Lewisview", "state": "PA", "address": "969 Kelly Causeway", "year": 2021, "interdiction_date": "2021-10-12", "location_id": "shared_2021_350" }, "geometry": { "type": "Point", "coordinates": [ -95.244322730472007, 48.307853307014696 ] } },
{ "type": "Feature", "properties": { "count": 34, "timestamp": "2021-11-14", "city": "North Matthewshire", "state": "ND", "address": "163 Garcia Mountain", "year": 2024, "interdiction_date": "2024-01-01", "location_id": "shared_2024_127" }, "geometry": { "type": "Point", "coordinates": [ -91.355689998087257, 36.698202594513802 ] } },
{ "type": "Feature", "properties": { "count": 2, "timestamp": "2023-04-19", "city": "Garciatown", "state": "MP", "address": "4132 Bell Roads Apt. 133", "year": 2022, "interdiction_date": "2022-03-13", "location_id": "shared_2022_46" }, "geometry": { "type": "Point", "coordinates": [ -94.872576915047631, 32.964768263426677 ] } },
{ "type": "Feature", "properties": { "count": 34, "timestamp": "2024-05-02", "city": "West Gregoryside", "state": "FL", "address": "45546 Nicholas Avenue Suite 657", "year": 2024, "interdiction_date": "2024-10-06", "location_id": "shared_2024_372" }, "geometry": { "type": "Point", "coordinates": [ -123.26080580148988, 44.681169144191536 ] } },
{ "type": "Feature", "properties": { "count": 20, "timestamp": "2024-01-20", "city": "East Jon", "state": "OK", "address": "6723 Stewart Way Suite 281", "year": 2024, "interdiction_date": "2024-10-04", "location_id": "shared_2024_219" }, "geometry": { "type": "Point", "coordinates": [ -92.953838164757542, 31.776860175105504 ] } },
{ "type": "Feature", "properties": { "count": 7, "timestamp": "2023-01-12", "city": "North Bradley", "state": "NM", "address": "94797 Henderson Turnpike Suite 266", "year": 2023, "interdiction_date": "2023-08-24", "location_id": "shared_2023_173" }, "geometry": { "type": "Point", "coordinates": [ -85.970077640058676, 43.726036845957289 ] } },
{ "type": "Feature", "properties": { "count": 6, "timestamp": "2022-03-22", "city": "West Adambury", "state": "NC", "address": "722 Thompson Hollow", "year": 2022, "interdiction_date": "2022-09-23", "location_id": "shared_2022_165" }, "geometry": { "type": "Point", "coordinates": [ -124.097626584498244, 42.271318696384824 ] } },
{ "type": "Feature", "properties": { "count": 34, "timestamp": "2021-03-20", "city": "Freyside", "state": "IL", "address": "737 Shelly Port Apt. 348", "year": 2025, "interdiction_date": "2025-03-04", "location_id": "shared_2025_159" }, "geometry": { "type": "Point", "coordinates": [ -110.58128683865192, 41.456722439406313 ] } },
{ "type": "Feature", "properties": { "count": 89, "timestamp": "2024-10-12", "city": "Mcmahonborough", "state": "SC", "address": "8975 Matthew Pines Suite 004", "year": 2023, "interdiction_date": "2023-05-07", "location_id": "shared_2023_104" }, "geometry": { "type": "Point", "coordinates": [ -89.242187029671015, 32.331169323838388 ] } },
{ "type": "Feature", "properties": { "count": 75, "timestamp": "2024-05-28", "city": "Lake Christopher", "state": "NM", "address": "4053 Dickerson Tunnel", "year": 2023, "interdiction_date": "2023-01-25", "location_id": "shared_2023_322" }, "geometry": { "type": "Point", "coordinates": [ -78.122046280793455, 37.537183493824003 ] } },
{ "type": "Feature", "properties": { "count": 40, "timestamp": "2022-01-18", "city": "East Kimberlyview", "state": "SC", "address": "6598 Klein Roads Suite 327", "year": 2025, "interdiction_date": "2025-01-11", "location_id": "shared_2025_402" }, "geometry": { "type": "Point", "coordinates": [ -97.545137045735856, 37.945620421745872 ] } },
{ "type": "Feature", "properties": { "count": 14, "timestamp": "2022-10-12", "city": "West Julie", "state": "CO", "address": "44645 Ingram Spring Suite 202", "year": 2025, "interdiction_date": "2025-08-07", "location_id": "shared_2025_399" }, "geometry": { "type": "Point", "coordinates": [ -116.922094953304992, 42.827875817940964 ] } },
{ "type": "Feature", "properties": { "count": 53, "timestamp": "2023-09-05", "city": "Anthonychester", "state": "OR", "address": "927 Nicole Oval Suite 406", "year": 2022, "interdiction_date": "2022-09-18", "location_id": "shared_2022_151" }, "geometry": { "type": "Point", "coordinates": [ -122.223400611722127, 39.059000164402015 ] } },
{ "type": "Feature", "properties": { "count": 31, "timestamp": "2023-01-16", "city": "Estradaville", "state": "RI", "address": "615 Ballard Cliff", "year": 2024, "interdiction_date": "2024-05-14", "location_id": "shared_2024_418" }, "geometry": { "type": "Point", "coordinates": [ -123.17943999633367, 43.033500584696249 ] } },
{ "type": "Feature", "properties": { "count": 53, "timestamp": "2022-01-15", "city": "South Randyland", "state": "CT", "address": "618 Castaneda Camp", "year": 2021, "interdiction_date": "2021-12-15", "location_id": "shared_2021_230" }, "geometry": { "type": "Point", "coordinates": [ -110.399511636236085, 43.310419170081566 ] } },
{ "type": "Feature", "properties": { "count": 35, "timestamp": "2020-04-13", "city": "New Dianaview", "state": "OK", "address": "812 Kelly Walk", "year": 2020, "interdiction_date": "2020-07-06", "location_id": "shared_2020_134" }, "geometry": { "type": "Point", "coordinates": [ -117.419166732882346, 47.867168875865147 ] } },
{ "type": "Feature", "properties": { "count": 30, "timestamp": "2020-05-06", "city": "Christophershire", "state": "NM", "address": "78054 Wolf Square", "year": 2025, "interdiction_date": "2025-02-08", "location_id": "shared_2025_308" }, "geometry": { "type": "Point", "coordinates": [ -98.858627193186962, 48.606134742192182 ] } },
{ "type": "Feature", "properties": { "count": 43, "timestamp": "2020-11-21", "city": "New Jamie", "state": "RI", "address": "3705 Smith Manor Suite 840", "year": 2020, "interdiction_date": "2020-05-19", "location_id": "shared_2020_214" }, "geometry": { "type": "Point", "coordinates": [ -99.519670685028771, 48.792939115980055 ] } },
{ "type": "Feature", "properties": { "count": 36, "timestamp": "2020-04-19", "city": "Rosalesberg", "state": "ME", "address": "1616 Beth Mission Apt. 703", "year": 2024, "interdiction_date": "2024-05-22", "location_id": "shared_2024_61" }, "geometry": { "type": "Point", "coordinates": [ -86.852838420010158, 35.347811793331523 ] } },
{ "type": "Feature", "properties": { "count": 69, "timestamp": "2020-04-13", "city": "Lake Markstad", "state": "OH", "address": "859 Laura Port Apt. 990", "year": 2024, "interdiction_date": "2024-11-16", "location_id": "shared_2024_183" }, "geometry": { "type": "Point", "coordinates": [ -107.329253033309811, 35.97336186524182 ] } },
{ "type": "Feature", "properties": { "count": 34, "timestamp": "2022-05-07", "city": "Zacharyport", "state": "CT", "address": "6048 Weber Trace", "year": 2025, "interdiction_date": "2025-11-21", "location_id": "shared_2025_326" }, "geometry": { "type": "Point", "coordinates": [ -80.796252128654814, 37.641546639200769 ] } },
{ "type": "Feature", "properties": { "count": 41, "timestamp": "2022-07-13", "city": "West Isaiahborough", "state": "MN", "address": "668 Bell Fall", "year": 2024, "interdiction_date": "2024-06-04", "location_id": "shared_2024_371" }, "geometry": { "type": "Point", "coordinates": [ -117.373228081498894, 43.459181781459179 ] } },
{ "type": "Feature", "properties": { "count": 50, "timestamp": "2020-11-12", "city": "Jasonhaven", "state": "VA", "address": "751 Robert Circle", "year": 2021, "interdiction_date": "2021-09-23", "location_id": "shared_2021_71" }, "geometry": { "type": "Point", "coordinates": [ -97.896139426296401, 31.444318810488781 ] } },
{ "type": "Feature", "properties": { "count": 26, "timestamp": "2023-05-16", "city": "Smallville", "state": "NH", "address": "14191 Foster Turnpike", "year": 2022, "interdiction_date": "2022-09-25", "location_id": "shared_2022_227" }, "geometry": { "type": "Point", "coordinates": [ -105.527448493206535, 32.810308430004888 ] } },
{ "type": "Feature", "properties": { "count": 43, "timestamp": "2023-11-08", "city": "Lake Jennifertown", "state": "MP", "address": "0759 Bruce Club", "year": 2022, "interdiction_date": "2022-03-15", "location_id": "shared_2022_31" }, "geometry": { "type": "Point", "coordinates": [ -92.610567177573827, 47.901265985276112 ] } },
{ "type": "Feature", "properties": { "count": 93, "timestamp": "2023-12-04", "city": "East Tammyhaven", "state": "KS", "address": "30999 Keith River", "year": 2025, "interdiction_date": "2025-04-03", "location_id": "shared_2025_338" }, "geometry": { "type": "Point", "coordinates": [ -72.747971251359246, 41.014094181260944 ] } },
{ "type": "Feature", "properties": { "count": 96, "timestamp": "2023-05-03", "city": "Michaelfurt", "state": "UT", "address": "6611 Lane Courts Suite 061", "year": 2022, "interdiction_date": "2022-04-25", "location_id": "shared_2022_175" }, "geometry": { "type": "Point", "coordinates": [ -118.248634149057807, 42.214265093560101 ] } },
{ "type": "Feature", "properties": { "count": 71, "timestamp": "2024-12-21", "city": "Davilafurt", "state": "SD", "address": "3133 Alexander Light Apt. 583", "year": 2020, "interdiction_date": "2020-03-15", "location_id": "shared_2020_51" }, "geometry": { "type": "Point", "coordinates": [ -110.311976338604225, 38.747309353017435 ] } },
{ "type": "Feature", "properties": { "count": 75, "timestamp": "2023-07-10", "city": "Peckland", "state": "PA", "address": "3260 John Brook Apt. 637", "year": 2020, "interdiction_date": "2020-04-27", "location_id": "shared_2020_364" }, "geometry": { "type": "Point", "coordinates": [ -98.085508309179616, 48.117038677957154 ] } },
{ "type": "Feature", "properties": { "count": 26, "timestamp": "2023-08-01", "city": "Benjaminville", "state": "PW", "address": "4202 Roger Squares Suite 768", "year": 2020, "interdiction_date": "2020-05-06", "location_id": "shared_2020_245" }, "geometry": { "type": "Point", "coordinates": [ -98.260830728350882, 26.614267823542516 ] } },
{ "type": "Feature", "properties": { "count": 50, "timestamp": "2023-05-07", "city": "West Jasminestad", "state": "IN", "address": "99166 Ray Springs", "year": 2024, "interdiction_date": "2024-03-03", "location_id": "shared_2024_284" }, "geometry": { "type": "Point", "coordinates": [ -90.87212874570784, 36.426633669136741 ] } },
{ "type": "Feature", "properties": { "count": 14, "timestamp": "2022-12-02", "city": "Mooreberg", "state": "PA", "address": "598 Williams Groves", "year": 2023, "interdiction_date": "2023-03-28", "location_id": "shared_2023_184" }, "geometry": { "type": "Point", "coordinates": [ -104.146080097115757, 30.148122752647041 ] } },
{ "type": "Feature", "properties": { "count": 90, "timestamp": "2020-10-25", "city": "Davidland", "state": "WY", "address": "7991 Leblanc Knolls", "year": 2025, "interdiction_date": "2025-09-03", "location_id": "shared_2025_204" }, "geometry": { "type": "Point", "coordinates": [ -106.43737157775017, 33.33042950663193 ] } },
{ "type": "Feature", "properties": { "count": 16, "timestamp": "2022-02-22", "city": "Jameschester", "state": "NY", "address": "152 Kenneth Parks", "year": 2023, "interdiction_date": "2023-09-20", "location_id": "shared_2023_273" }, "geometry": { "type": "Point", "coordinates": [ -82.320954369088511, 37.973703347934503 ] } },
{ "type": "Feature", "properties": { "count": 68, "timestamp": "2020-09-18", "city": "New Alyssashire", "state": "MO", "address": "03212 Christina Trace", "year": 2023, "interdiction_date": "2023-02-19", "location_id": "shared_2023_354" }, "geometry": { "type": "Point", "coordinates": [ -81.354525178352631, 31.758451917965619 ] } },
{ "type": "Feature", "properties": { "count": 55, "timestamp": "2024-12-04", "city": "Omarborough", "state": "VT", "address": "417 Peter Trail Apt. 073", "year": 2022, "interdiction_date": "2022-05-11", "location_id": "shared_2022_43" }, "geometry": { "type": "Point", "coordinates": [ -108.360365038654606, 40.47371335666287 ] } },
{ "type": "Feature", "properties": { "count": 61, "timestamp": "2024-09-12", "city": "Natalieland", "state": "WY", "address": "2082 Allison Course Apt. 289", "year": 2024, "interdiction_date": "2024-01-18", "location_id": "shared_2024_270" }, "geometry": { "type": "Point", "coordinates": [ -121.181502200158832, 44.910829170509672 ] } },
{ "type": "Feature", "properties": { "count": 81, "timestamp": "2021-01-27", "city": "West Brandon", "state": "CT", "address": "4219 Lawson Centers", "year": 2023, "interdiction_date": "2023-10-21", "location_id": "shared_2023_36" }, "geometry": { "type": "Point", "coordinates": [ -92.996587775978398, 36.184260750701227 ] } },
{ "type": "Feature", "properties": { "count": 37, "timestamp": "2021-05-13", "city": "North Bradley", "state": "NM", "address": "94797 Henderson Turnpike Suite 266", "year": 2023, "interdiction_date": "2023-08-24", "location_id": "shared_2023_173" }, "geometry": { "type": "Point", "coordinates": [ -85.970077640058676, 43.726036845957289 ] } },
{ "type": "Feature", "properties": { "count": 70, "timestamp": "2023-01-12", "city": "Garzaview", "state": "IL", "address": "47025 Andrew Causeway", "year": 2021, "interdiction_date": "2021-05-09", "location_id": "shared_2021_384" }, "geometry": { "type": "Point", "coordinates": [ -94.169836086990585, 34.995411877788712 ] } },
{ "type": "Feature", "properties": { "count": 89, "timestamp": "2021-11-01", "city": "Johnchester", "state": "NY", "address": "338 Erica Park", "year": 2024, "interdiction_date": "2024-12-08", "location_id": "shared_2024_168" }, "geometry": { "type": "Point", "coordinates": [ -104.95798998616074, 44.341910264223607 ] } },
{ "type": "Feature", "properties": { "count": 27, "timestamp": "2024-09-11", "city": "Marvinside", "state": "ID", "address": "72111 Walter Circle Suite 875", "year": 2021, "interdiction_date": "2021-12-15", "location_id": "shared_2021_185" }, "geometry": { "type": "Point", "coordinates": [ -103.450414362914387, 35.390617502625879 ] } },
{ "type": "Feature", "properties": { "count": 54, "timestamp": "2020-07-27", "city": "North Brianchester", "state": "FM", "address": "151 Tammy Squares Suite 742", "year": 2024, "interdiction_date": "2024-07-09", "location_id": "shared_2024_248" }, "geometry": { "type": "Point", "coordinates": [ -88.827689841856994, 33.947929960295163 ] } },
{ "type": "Feature", "properties": { "count": 78, "timestamp": "2024-10-15", "city": "North Robert", "state": "FM", "address": "3858 Timothy Squares Apt. 962", "year": 2025, "interdiction_date": "2025-01-06", "location_id": "shared_2025_300" }, "geometry": { "type": "Point", "coordinates": [ -99.569269247282676, 29.413111879901326 ] } },
{ "type": "Feature", "properties": { "count": 76, "timestamp": "2020-07-17", "city": "Nathanborough", "state": "CT", "address": "5967 Parker Alley", "year": 2024, "interdiction_date": "2024-09-27", "location_id": "shared_2024_179" }, "geometry": { "type": "Point", "coordinates": [ -121.197452332529608, 46.547975784765157 ] } },
{ "type": "Feature", "properties": { "count": 55, "timestamp": "2023-10-30", "city": "Calderonhaven", "state": "LA", "address": "5007 Amber Pass", "year": 2025, "interdiction_date": "2025-12-16", "location_id": "shared_2025_253" }, "geometry": { "type": "Point", "coordinates": [ -103.190934724490148, 42.800389032848209 ] } },
{ "type": "Feature", "properties": { "count": 96, "timestamp": "2025-02-06", "city": "Heathertown", "state": "TN", "address": "5848 White Motorway", "year": 2023, "interdiction_date": "2023-03-09", "location_id": "shared_2023_334" }, "geometry": { "type": "Point", "coordinates": [ -117.08014847080554, 48.840682567858948 ] } },
{ "type": "Feature", "properties": { "count": 29, "timestamp": "2022-10-03", "city": "South Cynthiaville", "state": "NV", "address": "1538 Diaz Burg Apt. 767", "year": 2021, "interdiction_date": "2021-04-01", "location_id": "shared_2021_53" }, "geometry": { "type": "Point", "coordinates": [ -103.846100709635934, 33.324682655173063 ] } },
{ "type": "Feature", "properties": { "count": 6, "timestamp": "2021-04-30", "city": "Lake Kellytown", "state": "WY", "address": "715 Boyd Court", "year": 2024, "interdiction_date": "2024-02-06", "location_id": "shared_2024_64" }, "geometry": { "type": "Point", "coordinates": [ -106.460667505471434, 46.719683327410877 ] } },
{ "type": "Feature", "properties": { "count": 86, "timestamp": "2020-06-02", "city": "Taraborough", "state": "MT", "address": "279 Alan Station Suite 553", "year": 2025, "interdiction_date": "2025-06-26", "location_id": "shared_2025_34" }, "geometry": { "type": "Point", "coordinates": [ -98.247826900295649, 33.04100905272886 ] } },
{ "type": "Feature", "properties": { "count": 90, "timestamp": "2024-12-16", "city": "Fishermouth", "state": "HI", "address": "899 Wood Divide", "year": 2025, "interdiction_date": "2025-07-06", "location_id": "shared_2025_70" }, "geometry": { "type": "Point", "coordinates": [ -78.351184114655567, 40.269671506294962 ] } },
{ "type": "Feature", "properties": { "count": 78, "timestamp": "2022-07-07", "city": "Kelleymouth", "state": "KY", "address": "63518 Craig Greens Apt. 882", "year": 2021, "interdiction_date": "2021-05-22", "location_id": "shared_2021_173" }, "geometry": { "type": "Point", "coordinates": [ -123.511009123360864, 43.442352477733053 ] } },
{ "type": "Feature", "properties": { "count": 40, "timestamp": "2025-04-08", "city": "East Carolyn", "state": "OR", "address": "5567 Jacob Lodge", "year": 2022, "interdiction_date": "2022-03-04", "location_id": "shared_2022_366" }, "geometry": { "type": "Point", "coordinates": [ -77.99437064489544, 37.969197766742461 ] } },
{ "type": "Feature", "properties": { "count": 74, "timestamp": "2022-08-19", "city": "Port Amy", "state": "NC", "address": "710 Gonzalez Mission", "year": 2022, "interdiction_date": "2022-04-05", "location_id": "shared_2022_189" }, "geometry": { "type": "Point", "coordinates": [ -123.912785187658685, 42.827646471835237 ] } },
{ "type": "Feature", "properties": { "count": 81, "timestamp": "2022-01-03", "city": "Lake Margaret", "state": "GU", "address": "72226 Matthews Center Suite 038", "year": 2024, "interdiction_date": "2024-11-23", "location_id": "shared_2024_386" }, "geometry": { "type": "Point", "coordinates": [ -91.66642472081557, 44.304376848776528 ] } },
{ "type": "Feature", "properties": { "count": 88, "timestamp": "2020-07-13", "city": "Fordland", "state": "WI", "address": "892 Morton Villages Suite 277", "year": 2022, "interdiction_date": "2022-01-05", "location_id": "shared_2022_25" }, "geometry": { "type": "Point", "coordinates": [ -99.773632591247861, 43.696647537955535 ] } },
{ "type": "Feature", "properties": { "count": 73, "timestamp": "2022-08-03", "city": "Lake Michelle", "state": "WI", "address": "307 Monique Points", "year": 2022, "interdiction_date": "2022-04-22", "location_id": "shared_2022_331" }, "geometry": { "type": "Point", "coordinates": [ -107.192509618478226, 48.059356748522333 ] } },
{ "type": "Feature", "properties": { "count": 54, "timestamp": "2023-12-10", "city": "Port Kylechester", "state": "MH", "address": "43601 Mason Ford Apt. 359", "year": 2022, "interdiction_date": "2022-02-26", "location_id": "shared_2022_15" }, "geometry": { "type": "Point", "coordinates": [ -81.913605667439981, 33.251470474248457 ] } },
{ "type": "Feature", "properties": { "count": 82, "timestamp": "2025-02-18", "city": "Wallacechester", "state": "FL", "address": "9605 Jon Knoll", "year": 2020, "interdiction_date": "2020-07-01", "location_id": "shared_2020_123" }, "geometry": { "type": "Point", "coordinates": [ -106.261762950235052, 40.094486290104314 ] } },
{ "type": "Feature", "properties": { "count": 94, "timestamp": "2022-06-05", "city": "Lake Stephaniemouth", "state": "MH", "address": "600 Swanson Island Apt. 990", "year": 2021, "interdiction_date": "2021-10-04", "location_id": "shared_2021_125" }, "geometry": { "type": "Point", "coordinates": [ -83.758772604376489, 41.586204876474838 ] } },
{ "type": "Feature", "properties": { "count": 69, "timestamp": "2020-06-17", "city": "New Lauraport", "state": "LA", "address": "113 Bean Rapid Suite 412", "year": 2024, "interdiction_date": "2024-08-17", "location_id": "shared_2024_384" }, "geometry": { "type": "Point", "coordinates": [ -83.973725289786444, 33.513297272304669 ] } },
{ "type": "Feature", "properties": { "count": 76, "timestamp": "2024-07-16", "city": "Port Stephenburgh", "state": "AZ", "address": "7292 Ruth Field Suite 907", "year": 2021, "interdiction_date": "2021-03-11", "location_id": "shared_2021_280" }, "geometry": { "type": "Point", "coordinates": [ -115.744017675147603, 38.06933127319563 ] } },
{ "type": "Feature", "properties": { "count": 12, "timestamp": "2024-07-05", "city": "Shannonview", "state": "LA", "address": "99473 Nelson Light Apt. 642", "year": 2022, "interdiction_date": "2022-09-09", "location_id": "shared_2022_91" }, "geometry": { "type": "Point", "coordinates": [ -89.389894189043545, 33.485753981870872 ] } },
{ "type": "Feature", "properties": { "count": 60, "timestamp": "2024-11-14", "city": "New Christine", "state": "GU", "address": "0857 Shannon Grove", "year": 2022, "interdiction_date": "2022-01-07", "location_id": "shared_2022_278" }, "geometry": { "type": "Point", "coordinates": [ -78.154414981280965, 43.605970268617355 ] } },
{ "type": "Feature", "properties": { "count": 28, "timestamp": "2020-09-11", "city": "South Kristin", "state": "AR", "address": "56484 Levine Lights Apt. 396", "year": 2020, "interdiction_date": "2020-10-19", "location_id": "shared_2020_277" }, "geometry": { "type": "Point", "coordinates": [ -124.080599863886803, 42.287827147296404 ] } },
{ "type": "Feature", "properties": { "count": 63, "timestamp": "2022-04-26", "city": "Fostershire", "state": "MD", "address": "905 Smith Key Suite 450", "year": 2020, "interdiction_date": "2020-09-23", "location_id": "shared_2020_316" }, "geometry": { "type": "Point", "coordinates": [ -118.330816907489435, 37.614952486230536 ] } },
{ "type": "Feature", "properties": { "count": 83, "timestamp": "2021-07-10", "city": "Estradaville", "state": "RI", "address": "615 Ballard Cliff", "year": 2024, "interdiction_date": "2024-05-14", "location_id": "shared_2024_418" }, "geometry": { "type": "Point", "coordinates": [ -123.17943999633367, 43.033500584696249 ] } },
{ "type": "Feature", "properties": { "count": 12, "timestamp": "2022-02-07", "city": "Jonesburgh", "state": "MO", "address": "08640 Nunez Union Suite 042", "year": 2024, "interdiction_date": "2024-01-15", "location_id": "shared_2024_176" }, "geometry": { "type": "Point", "coordinates": [ -121.044104837919164, 39.662015639906549 ] } },
{ "type": "Feature", "properties": { "count": 40, "timestamp": "2021-03-12", "city": "South Eric", "state": "NY", "address": "612 Ward Camp", "year": 2025, "interdiction_date": "2025-09-04", "location_id": "shared_2025_366" }, "geometry": { "type": "Point", "coordinates": [ -83.545403931970156, 43.361366611101985 ] } },
{ "type": "Feature", "properties": { "count": 33, "timestamp": "2021-08-24", "city": "New Natashatown", "state": "CA", "address": "422 Randolph Lights", "year": 2021, "interdiction_date": "2021-02-15", "location_id": "shared_2021_293" }, "geometry": { "type": "Point", "coordinates": [ -84.903827849093133, 30.559956257912873 ] } },
{ "type": "Feature", "properties": { "count": 16, "timestamp": "2022-02-13", "city": "Connieburgh", "state": "MP", "address": "981 Mcmahon Club Apt. 781", "year": 2023, "interdiction_date": "2023-04-11", "location_id": "shared_2023_304" }, "geometry": { "type": "Point", "coordinates": [ -83.607308093492975, 45.771392381433863 ] } },
{ "type": "Feature", "properties": { "count": 2, "timestamp": "2020-12-17", "city": "South Randyland", "state": "CT", "address": "618 Castaneda Camp", "year": 2021, "interdiction_date": "2021-12-15", "location_id": "shared_2021_230" }, "geometry": { "type": "Point", "coordinates": [ -110.399511636236085, 43.310419170081566 ] } },
{ "type": "Feature", "properties": { "count": 7, "timestamp": "2023-12-19", "city": "Knightview", "state": "GU", "address": "4459 Devon Road", "year": 2024, "interdiction_date": "2024-01-08", "location_id": "shared_2024_382" }, "geometry": { "type": "Point", "coordinates": [ -100.982308345414765, 40.837776517757042 ] } },
{ "type": "Feature", "properties": { "count": 82, "timestamp": "2023-07-28", "city": "Millerside", "state": "DC", "address": "2619 Megan Pass Suite 122", "year": 2025, "interdiction_date": "2025-04-17", "location_id": "shared_2025_353" }, "geometry": { "type": "Point", "coordinates": [ -83.338570509119648, 34.20387812775202 ] } },
{ "type": "Feature", "properties": { "count": 37, "timestamp": "2022-07-22", "city": "Bennettmouth", "state": "MA", "address": "9771 Peter Neck Suite 298", "year": 2022, "interdiction_date": "2022-12-22", "location_id": "shared_2022_14" }, "geometry": { "type": "Point", "coordinates": [ -91.849777513119278, 42.332882115736531 ] } },
{ "type": "Feature", "properties": { "count": 7, "timestamp": "2022-10-06", "city": "Lake Janetfort", "state": "NV", "address": "606 John Parks", "year": 2024, "interdiction_date": "2024-04-27", "location_id": "shared_2024_54" }, "geometry": { "type": "Point", "coordinates": [ -115.944963658840706, 45.213527341633572 ] } },
{ "type": "Feature", "properties": { "count": 9, "timestamp": "2021-08-19", "city": "North Stevenborough", "state": "CA", "address": "334 Rick Divide Suite 750", "year": 2025, "interdiction_date": "2025-01-15", "location_id": "shared_2025_373" }, "geometry": { "type": "Point", "coordinates": [ -85.286501161520931, 29.823771532641473 ] } },
{ "type": "Feature", "properties": { "count": 88, "timestamp": "2020-06-29", "city": "Lake Stephaniemouth", "state": "MH", "address": "600 Swanson Island Apt. 990", "year": 2021, "interdiction_date": "2021-10-04", "location_id": "shared_2021_125" }, "geometry": { "type": "Point", "coordinates": [ -83.758772604376489, 41.586204876474838 ] } },
{ "type": "Feature", "properties": { "count": 39, "timestamp": "2023-06-13", "city": "Bakershire", "state": "WI", "address": "89354 Roy Corner", "year": 2022, "interdiction_date": "2022-01-24", "location_id": "shared_2022_324" }, "geometry": { "type": "Point", "coordinates": [ -106.606141209432266, 45.22902569533278 ] } },
{ "type": "Feature", "properties": { "count": 29, "timestamp": "2021-05-01", "city": "South Edwardberg", "state": "PW", "address": "310 Allison Drive", "year": 2021, "interdiction_date": "2021-10-20", "location_id": "shared_2021_157" }, "geometry": { "type": "Point", "coordinates": [ -119.883184479858258, 35.268051184454151 ] } },
{ "type": "Feature", "properties": { "count": 39, "timestamp": "2023-10-13", "city": "Glennland", "state": "MA", "address": "3385 Conner Harbors Suite 487", "year": 2023, "interdiction_date": "2023-03-12", "location_id": "shared_2023_312" }, "geometry": { "type": "Point", "coordinates": [ -81.102077101338494, 34.467517757342456 ] } },
{ "type": "Feature", "properties": { "count": 80, "timestamp": "2023-10-24", "city": "South Ericton", "state": "WA", "address": "9509 Marc Fork", "year": 2024, "interdiction_date": "2024-04-02", "location_id": "shared_2024_236" }, "geometry": { "type": "Point", "coordinates": [ -101.782414467963093, 36.560276252671827 ] } },
{ "type": "Feature", "properties": { "count": 98, "timestamp": "2020-08-09", "city": "Amandachester", "state": "CO", "address": "906 Wall Road", "year": 2022, "interdiction_date": "2022-03-25", "location_id": "shared_2022_303" }, "geometry": { "type": "Point", "coordinates": [ -82.338409763013559, 27.654433210573888 ] } },
{ "type": "Feature", "properties": { "count": 37, "timestamp": "2022-10-16", "city": "Robersonton", "state": "NV", "address": "60694 Scott Green Apt. 957", "year": 2023, "interdiction_date": "2023-09-03", "location_id": "shared_2023_101" }, "geometry": { "type": "Point", "coordinates": [ -85.360858177293608, 36.894348057897751 ] } },
{ "type": "Feature", "properties": { "count": 85, "timestamp": "2023-03-13", "city": "Walkerberg", "state": "FL", "address": "09272 Hess Place Apt. 364", "year": 2023, "interdiction_date": "2023-04-27", "location_id": "shared_2023_177" }, "geometry": { "type": "Point", "coordinates": [ -68.940376014087036, 46.627324226196947 ] } },
{ "type": "Feature", "properties": { "count": 83, "timestamp": "2024-02-15", "city": "East Jeffreyborough", "state": "WY", "address": "5661 Shea Harbor Suite 582", "year": 2022, "interdiction_date": "2022-10-22", "location_id": "shared_2022_191" }, "geometry": { "type": "Point", "coordinates": [ -83.079200869072864, 30.094496122363402 ] } },
{ "type": "Feature", "properties": { "count": 10, "timestamp": "2021-06-17", "city": "Brownside", "state": "DC", "address": "34662 Charles Fields Apt. 160", "year": 2025, "interdiction_date": "2025-12-25", "location_id": "shared_2025_269" }, "geometry": { "type": "Point", "coordinates": [ -92.627496696906434, 31.471503529206274 ] } },
{ "type": "Feature", "properties": { "count": 96, "timestamp": "2025-03-03", "city": "Dennisside", "state": "AZ", "address": "566 Taylor Road", "year": 2023, "interdiction_date": "2023-11-18", "location_id": "shared_2023_290" }, "geometry": { "type": "Point", "coordinates": [ -93.02208255235584, 32.333313098167388 ] } },
{ "type": "Feature", "properties": { "count": 35, "timestamp": "2024-08-10", "city": "South Cynthiaberg", "state": "AR", "address": "6229 Rich Ways Apt. 960", "year": 2022, "interdiction_date": "2022-07-12", "location_id": "shared_2022_52" }, "geometry": { "type": "Point", "coordinates": [ -92.758866686851832, 34.47875541588526 ] } },
{ "type": "Feature", "properties": { "count": 77, "timestamp": "2023-06-15", "city": "Port Ashleytown", "state": "MP", "address": "82346 Herrera Square", "year": 2024, "interdiction_date": "2024-04-14", "location_id": "shared_2024_84" }, "geometry": { "type": "Point", "coordinates": [ -83.3122244035157, 44.390727810787169 ] } },
{ "type": "Feature", "properties": { "count": 78, "timestamp": "2025-02-02", "city": "Port Stanley", "state": "IL", "address": "167 David Flat Suite 594", "year": 2021, "interdiction_date": "2021-03-16", "location_id": "shared_2021_139" }, "geometry": { "type": "Point", "coordinates": [ -77.146004426051732, 41.893795663585969 ] } },
{ "type": "Feature", "properties": { "count": 98, "timestamp": "2023-09-25", "city": "Anthonychester", "state": "OR", "address": "927 Nicole Oval Suite 406", "year": 2022, "interdiction_date": "2022-09-18", "location_id": "shared_2022_151" }, "geometry": { "type": "Point", "coordinates": [ -122.223400611722127, 39.059000164402015 ] } },
{ "type": "Feature", "properties": { "count": 36, "timestamp": "2021-01-19", "city": "South Lisa", "state": "GA", "address": "840 Richard Ways", "year": 2020, "interdiction_date": "2020-02-12", "location_id": "shared_2020_3" }, "geometry": { "type": "Point", "coordinates": [ -90.937217102520705, 37.207786210839302 ] } },
{ "type": "Feature", "properties": { "count": 42, "timestamp": "2022-05-11", "city": "South Angelicaburgh", "state": "SD", "address": "54051 Julie Valley", "year": 2020, "interdiction_date": "2020-10-25", "location_id": "shared_2020_369" }, "geometry": { "type": "Point", "coordinates": [ -120.16678574583085, 46.650226275624121 ] } },
{ "type": "Feature", "properties": { "count": 53, "timestamp": "2020-05-13", "city": "Jackfurt", "state": "HI", "address": "25030 Hunt River Suite 339", "year": 2025, "interdiction_date": "2025-10-23", "location_id": "shared_2025_163" }, "geometry": { "type": "Point", "coordinates": [ -97.379584483581283, 41.432026820042708 ] } },
{ "type": "Feature", "properties": { "count": 33, "timestamp": "2021-08-17", "city": "North Jacquelineland", "state": "MI", "address": "483 Paul Parkway Apt. 553", "year": 2020, "interdiction_date": "2020-06-16", "location_id": "shared_2020_24" }, "geometry": { "type": "Point", "coordinates": [ -79.161211473057648, 37.15238661397872 ] } },
{ "type": "Feature", "properties": { "count": 53, "timestamp": "2022-11-01", "city": "East Zachary", "state": "MS", "address": "88979 Adams Cove Apt. 370", "year": 2024, "interdiction_date": "2024-07-20", "location_id": "shared_2024_239" }, "geometry": { "type": "Point", "coordinates": [ -70.128730822289043, 44.554511409011276 ] } },
{ "type": "Feature", "properties": { "count": 97, "timestamp": "2020-09-08", "city": "Christopherton", "state": "NM", "address": "25435 Blanchard Plain Suite 236", "year": 2022, "interdiction_date": "2022-03-18", "location_id": "shared_2022_132" }, "geometry": { "type": "Point", "coordinates": [ -106.769703262918114, 36.578279487289379 ] } },
{ "type": "Feature", "properties": { "count": 27, "timestamp": "2024-11-04", "city": "Smithberg", "state": "MP", "address": "90255 Karen Junction Apt. 381", "year": 2020, "interdiction_date": "2020-10-21", "location_id": "shared_2020_313" }, "geometry": { "type": "Point", "coordinates": [ -121.062649178033766, 36.955776409525591 ] } },
{ "type": "Feature", "properties": { "count": 57, "timestamp": "2022-08-24", "city": "Port Ebonyview", "state": "CA", "address": "16757 Sara Springs", "year": 2021, "interdiction_date": "2021-05-11", "location_id": "shared_2021_160" }, "geometry": { "type": "Point", "coordinates": [ -94.782871738943314, 41.98023570581968 ] } },
{ "type": "Feature", "properties": { "count": 91, "timestamp": "2024-09-30", "city": "West Mary", "state": "TX", "address": "23738 Zimmerman Falls", "year": 2025, "interdiction_date": "2025-04-05", "location_id": "shared_2025_307" }, "geometry": { "type": "Point", "coordinates": [ -107.011511284583975, 41.978888927815866 ] } },
{ "type": "Feature", "properties": { "count": 85, "timestamp": "2023-05-05", "city": "Lake Michelle", "state": "WI", "address": "307 Monique Points", "year": 2022, "interdiction_date": "2022-04-22", "location_id": "shared_2022_331" }, "geometry": { "type": "Point", "coordinates": [ -107.192509618478226, 48.059356748522333 ] } },
{ "type": "Feature", "properties": { "count": 62, "timestamp": "2021-10-24", "city": "Youngton", "state": "NM", "address": "397 Anna Harbors", "year": 2021, "interdiction_date": "2021-07-16", "location_id": "shared_2021_89" }, "geometry": { "type": "Point", "coordinates": [ -81.152660414122039, 35.640018707416893 ] } },
{ "type": "Feature", "properties": { "count": 91, "timestamp": "2022-09-08", "city": "Jessefurt", "state": "SD", "address": "5628 Robert Lakes", "year": 2025, "interdiction_date": "2025-09-27", "location_id": "shared_2025_235" }, "geometry": { "type": "Point", "coordinates": [ -97.813801867792378, 31.561558975884601 ] } },
{ "type": "Feature", "properties": { "count": 84, "timestamp": "2021-11-12", "city": "Peckland", "state": "PA", "address": "3260 John Brook Apt. 637", "year": 2020, "interdiction_date": "2020-04-27", "location_id": "shared_2020_364" }, "geometry": { "type": "Point", "coordinates": [ -98.085508309179616, 48.117038677957154 ] } },
{ "type": "Feature", "properties": { "count": 57, "timestamp": "2023-07-17", "city": "Carrollberg", "state": "NE", "address": "86202 Charles Avenue Suite 306", "year": 2025, "interdiction_date": "2025-11-25", "location_id": "shared_2025_267" }, "geometry": { "type": "Point", "coordinates": [ -109.180883672623168, 33.573088423439259 ] } },
{ "type": "Feature", "properties": { "count": 93, "timestamp": "2023-08-14", "city": "Nguyenborough", "state": "WA", "address": "5041 Mathews Crossroad", "year": 2021, "interdiction_date": "2021-03-21", "location_id": "shared_2021_132" }, "geometry": { "type": "Point", "coordinates": [ -121.156888896374639, 46.42473045440488 ] } },
{ "type": "Feature", "properties": { "count": 20, "timestamp": "2022-01-06", "city": "Tammyborough", "state": "IN", "address": "342 Evans Club Suite 269", "year": 2023, "interdiction_date": "2023-09-06", "location_id": "shared_2023_394" }, "geometry": { "type": "Point", "coordinates": [ -84.931247257296747, 44.902720322213149 ] } },
{ "type": "Feature", "properties": { "count": 44, "timestamp": "2024-02-04", "city": "Nicolestad", "state": "MI", "address": "0428 Tamara Mountains Apt. 388", "year": 2022, "interdiction_date": "2022-07-14", "location_id": "shared_2022_407" }, "geometry": { "type": "Point", "coordinates": [ -114.514137234662428, 46.119933847157718 ] } },
{ "type": "Feature", "properties": { "count": 43, "timestamp": "2020-09-24", "city": "West Adrianton", "state": "NJ", "address": "1886 Nicole Drive", "year": 2023, "interdiction_date": "2023-08-11", "location_id": "shared_2023_248" }, "geometry": { "type": "Point", "coordinates": [ -81.709886994386551, 30.881009937967182 ] } },
{ "type": "Feature", "properties": { "count": 70, "timestamp": "2022-11-23", "city": "Burnsshire", "state": "VA", "address": "57432 Louis Shore", "year": 2025, "interdiction_date": "2025-05-02", "location_id": "shared_2025_306" }, "geometry": { "type": "Point", "coordinates": [ -83.121850706007876, 29.538865433533996 ] } },
{ "type": "Feature", "properties": { "count": 13, "timestamp": "2021-07-19", "city": "Jasonhaven", "state": "DE", "address": "7849 Benson Creek", "year": 2020, "interdiction_date": "2020-12-06", "location_id": "shared_2020_292" }, "geometry": { "type": "Point", "coordinates": [ -95.457892408468609, 35.134083023653886 ] } },
{ "type": "Feature", "properties": { "count": 46, "timestamp": "2023-07-16", "city": "Meganton", "state": "MS", "address": "0120 Kim Gardens Apt. 507", "year": 2022, "interdiction_date": "2022-08-07", "location_id": "shared_2022_72" }, "geometry": { "type": "Point", "coordinates": [ -104.509410732477946, 35.474623283045702 ] } },
{ "type": "Feature", "properties": { "count": 23, "timestamp": "2020-06-13", "city": "South Adam", "state": "RI", "address": "105 Ford Green", "year": 2022, "interdiction_date": "2022-03-22", "location_id": "shared_2022_213" }, "geometry": { "type": "Point", "coordinates": [ -86.188828690258276, 47.37788160685119 ] } },
{ "type": "Feature", "properties": { "count": 88, "timestamp": "2020-04-19", "city": "Glennland", "state": "MA", "address": "3385 Conner Harbors Suite 487", "year": 2023, "interdiction_date": "2023-03-12", "location_id": "shared_2023_312" }, "geometry": { "type": "Point", "coordinates": [ -81.102077101338494, 34.467517757342456 ] } },
{ "type": "Feature", "properties": { "count": 30, "timestamp": "2021-05-26", "city": "Justinview", "state": "MT", "address": "26384 Nathan Square", "year": 2024, "interdiction_date": "2024-10-28", "location_id": "shared_2024_391" }, "geometry": { "type": "Point", "coordinates": [ -114.732231788872369, 44.516981680021061 ] } },
{ "type": "Feature", "properties": { "count": 86, "timestamp": "2021-11-08", "city": "West Jasminestad", "state": "IN", "address": "99166 Ray Springs", "year": 2024, "interdiction_date": "2024-03-03", "location_id": "shared_2024_284" }, "geometry": { "type": "Point", "coordinates": [ -90.87212874570784, 36.426633669136741 ] } },
{ "type": "Feature", "properties": { "count": 45, "timestamp": "2021-11-19", "city": "Lake Michelle", "state": "WI", "address": "307 Monique Points", "year": 2022, "interdiction_date": "2022-04-22", "location_id": "shared_2022_331" }, "geometry": { "type": "Point", "coordinates": [ -107.192509618478226, 48.059356748522333 ] } },
{ "type": "Feature", "properties": { "count": 89, "timestamp": "2021-04-01", "city": "New Davidbury", "state": "CA", "address": "376 Tom Squares Suite 081", "year": 2022, "interdiction_date": "2022-03-05", "location_id": "shared_2022_129" }, "geometry": { "type": "Point", "coordinates": [ -111.805455070861058, 33.229219673423287 ] } },
{ "type": "Feature", "properties": { "count": 88, "timestamp": "2021-10-26", "city": "East Joseborough", "state": "OR", "address": "682 Gonzalez Path Apt. 222", "year": 2025, "interdiction_date": "2025-07-09", "location_id": "shared_2025_94" }, "geometry": { "type": "Point", "coordinates": [ -105.856206310075123, 44.491684816806384 ] } },
{ "type": "Feature", "properties": { "count": 82, "timestamp": "2024-06-23", "city": "Williamfurt", "state": "LA", "address": "929 Andrew Ford Suite 050", "year": 2021, "interdiction_date": "2021-06-14", "location_id": "shared_2021_63" }, "geometry": { "type": "Point", "coordinates": [ -90.424561604500269, 47.938907317456533 ] } },
{ "type": "Feature", "properties": { "count": 93, "timestamp": "2024-10-23", "city": "Stephanietown", "state": "AL", "address": "5499 Jordan Trail Suite 410", "year": 2021, "interdiction_date": "2021-05-10", "location_id": "shared_2021_310" }, "geometry": { "type": "Point", "coordinates": [ -98.28897048160843, 26.875014721775557 ] } },
{ "type": "Feature", "properties": { "count": 57, "timestamp": "2023-09-29", "city": "South Jason", "state": "DC", "address": "43243 Allen Lodge", "year": 2021, "interdiction_date": "2021-05-19", "location_id": "shared_2021_109" }, "geometry": { "type": "Point", "coordinates": [ -118.082463560834242, 40.416093467683382 ] } },
{ "type": "Feature", "properties": { "count": 12, "timestamp": "2021-12-28", "city": "East Michael", "state": "MI", "address": "48711 Foster Rest", "year": 2023, "interdiction_date": "2023-12-10", "location_id": "shared_2023_284" }, "geometry": { "type": "Point", "coordinates": [ -110.322678568450527, 37.714409839898792 ] } },
{ "type": "Feature", "properties": { "count": 22, "timestamp": "2023-06-24", "city": "Orozcotown", "state": "MO", "address": "9406 Rodney Inlet", "year": 2025, "interdiction_date": "2025-01-21", "location_id": "shared_2025_215" }, "geometry": { "type": "Point", "coordinates": [ -83.354883255389893, 36.346183203045264 ] } },
{ "type": "Feature", "properties": { "count": 38, "timestamp": "2023-06-17", "city": "South Christina", "state": "AZ", "address": "141 Sarah Fords Suite 229", "year": 2025, "interdiction_date": "2025-10-16", "location_id": "shared_2025_237" }, "geometry": { "type": "Point", "coordinates": [ -112.146762876993279, 42.853225519840024 ] } },
{ "type": "Feature", "properties": { "count": 10, "timestamp": "2024-10-02", "city": "West Marybury", "state": "IA", "address": "95523 Chung Pines", "year": 2020, "interdiction_date": "2020-01-07", "location_id": "shared_2020_237" }, "geometry": { "type": "Point", "coordinates": [ -82.184707989581227, 38.881276172541874 ] } },
{ "type": "Feature", "properties": { "count": 72, "timestamp": "2023-12-03", "city": "Johnchester", "state": "NY", "address": "338 Erica Park", "year": 2024, "interdiction_date": "2024-12-08", "location_id": "shared_2024_168" }, "geometry": { "type": "Point", "coordinates": [ -104.95798998616074, 44.341910264223607 ] } },
{ "type": "Feature", "properties": { "count": 96, "timestamp": "2020-09-30", "city": "East Antonio", "state": "PA", "address": "879 Jeremy Turnpike Suite 230", "year": 2022, "interdiction_date": "2022-11-03", "location_id": "shared_2022_285" }, "geometry": { "type": "Point", "coordinates": [ -79.770023741254363, 38.377849563736561 ] } },
{ "type": "Feature", "properties": { "count": 82, "timestamp": "2024-05-02", "city": "Murrayhaven", "state": "ME", "address": "51912 Mitchell Crescent", "year": 2022, "interdiction_date": "2022-08-10", "location_id": "shared_2022_371" }, "geometry": { "type": "Point", "coordinates": [ -81.604556991545806, 41.257694798703838 ] } },
{ "type": "Feature", "properties": { "count": 4, "timestamp": "2022-04-24", "city": "New Christopher", "state": "AZ", "address": "73270 Roach Street", "year": 2025, "interdiction_date": "2025-05-02", "location_id": "shared_2025_197" }, "geometry": { "type": "Point", "coordinates": [ -100.585216579924563, 33.636093561489218 ] } },
{ "type": "Feature", "properties": { "count": 79, "timestamp": "2021-05-05", "city": "Fordland", "state": "WI", "address": "892 Morton Villages Suite 277", "year": 2022, "interdiction_date": "2022-01-05", "location_id": "shared_2022_25" }, "geometry": { "type": "Point", "coordinates": [ -99.773632591247861, 43.696647537955535 ] } },
{ "type": "Feature", "properties": { "count": 18, "timestamp": "2024-07-29", "city": "New Tammyview", "state": "LA", "address": "69568 Floyd Orchard Apt. 874", "year": 2024, "interdiction_date": "2024-09-17", "location_id": "shared_2024_253" }, "geometry": { "type": "Point", "coordinates": [ -93.09036305915582, 36.392128004250594 ] } },
{ "type": "Feature", "properties": { "count": 64, "timestamp": "2021-10-19", "city": "Shaneport", "state": "AL", "address": "473 Craig Port Suite 008", "year": 2024, "interdiction_date": "2024-01-10", "location_id": "shared_2024_140" }, "geometry": { "type": "Point", "coordinates": [ -77.486784348517432, 38.458424934854023 ] } },
{ "type": "Feature", "properties": { "count": 96, "timestamp": "2022-11-24", "city": "Lake Dominichaven", "state": "OK", "address": "86718 Smith Cliff Suite 086", "year": 2020, "interdiction_date": "2020-06-21", "location_id": "shared_2020_31" }, "geometry": { "type": "Point", "coordinates": [ -114.753423267606308, 36.793517492091119 ] } },
{ "type": "Feature", "properties": { "count": 36, "timestamp": "2023-02-08", "city": "Anthonytown", "state": "MN", "address": "137 David Skyway Apt. 693", "year": 2024, "interdiction_date": "2024-01-27", "location_id": "shared_2024_276" }, "geometry": { "type": "Point", "coordinates": [ -115.66130792354916, 40.880360492750739 ] } },
{ "type": "Feature", "properties": { "count": 57, "timestamp": "2021-05-29", "city": "East Anthony", "state": "MP", "address": "898 Mathews Drive Suite 428", "year": 2024, "interdiction_date": "2024-10-02", "location_id": "shared_2024_286" }, "geometry": { "type": "Point", "coordinates": [ -107.513468857021593, 39.76341983127471 ] } },
{ "type": "Feature", "properties": { "count": 88, "timestamp": "2021-10-23", "city": "South Edwardberg", "state": "PW", "address": "310 Allison Drive", "year": 2021, "interdiction_date": "2021-10-20", "location_id": "shared_2021_157" }, "geometry": { "type": "Point", "coordinates": [ -119.883184479858258, 35.268051184454151 ] } },
{ "type": "Feature", "properties": { "count": 46, "timestamp": "2024-11-10", "city": "Lake Alec", "state": "AR", "address": "9753 Jared Ford Apt. 714", "year": 2023, "interdiction_date": "2023-06-26", "location_id": "shared_2023_124" }, "geometry": { "type": "Point", "coordinates": [ -97.13021320414822, 47.742366865483561 ] } },
{ "type": "Feature", "properties": { "count": 16, "timestamp": "2024-11-12", "city": "Lake Johnburgh", "state": "PA", "address": "86125 Gutierrez Mountain Apt. 845", "year": 2023, "interdiction_date": "2023-07-06", "location_id": "shared_2023_390" }, "geometry": { "type": "Point", "coordinates": [ -122.313705786028706, 40.272635989921966 ] } },
{ "type": "Feature", "properties": { "count": 43, "timestamp": "2021-06-27", "city": "West Jamie", "state": "NJ", "address": "2605 Crystal Track", "year": 2024, "interdiction_date": "2024-04-07", "location_id": "shared_2024_352" }, "geometry": { "type": "Point", "coordinates": [ -90.877065192368391, 33.225881797804426 ] } },
{ "type": "Feature", "properties": { "count": 23, "timestamp": "2025-03-10", "city": "Navarroside", "state": "MO", "address": "7389 Alexandra Mountains", "year": 2022, "interdiction_date": "2022-08-04", "location_id": "shared_2022_194" }, "geometry": { "type": "Point", "coordinates": [ -122.133399463641425, 39.857599558941587 ] } },
{ "type": "Feature", "properties": { "count": 95, "timestamp": "2024-07-09", "city": "Arielbury", "state": "GA", "address": "153 Jessica Gateway Apt. 082", "year": 2022, "interdiction_date": "2022-10-04", "location_id": "shared_2022_80" }, "geometry": { "type": "Point", "coordinates": [ -76.249400897044225, 41.423958722538444 ] } },
{ "type": "Feature", "properties": { "count": 61, "timestamp": "2021-05-19", "city": "Mcfarlandview", "state": "DE", "address": "00152 Ashley Passage Apt. 942", "year": 2021, "interdiction_date": "2021-09-16", "location_id": "shared_2021_81" }, "geometry": { "type": "Point", "coordinates": [ -122.466804374835974, 42.239682189821053 ] } },
{ "type": "Feature", "properties": { "count": 14, "timestamp": "2020-08-16", "city": "Olsonbury", "state": "DC", "address": "150 Phillips Crossroad", "year": 2022, "interdiction_date": "2022-10-15", "location_id": "shared_2022_117" }, "geometry": { "type": "Point", "coordinates": [ -83.200939656433448, 39.126441664669841 ] } },
{ "type": "Feature", "properties": { "count": 67, "timestamp": "2024-02-14", "city": "New Brenda", "state": "TN", "address": "261 Samantha Island Suite 611", "year": 2022, "interdiction_date": "2022-03-09", "location_id": "shared_2022_38" }, "geometry": { "type": "Point", "coordinates": [ -118.959320856381822, 39.206232828883152 ] } },
{ "type": "Feature", "properties": { "count": 36, "timestamp": "2024-05-29", "city": "Bethshire", "state": "CA", "address": "442 Cervantes Gardens Suite 773", "year": 2023, "interdiction_date": "2023-08-23", "location_id": "shared_2023_28" }, "geometry": { "type": "Point", "coordinates": [ -106.472325443568494, 34.515385669435304 ] } },
{ "type": "Feature", "properties": { "count": 42, "timestamp": "2022-01-09", "city": "South Carolynshire", "state": "VT", "address": "1345 Kimberly Brooks Apt. 672", "year": 2021, "interdiction_date": "2021-10-21", "location_id": "shared_2021_143" }, "geometry": { "type": "Point", "coordinates": [ -72.786192731456225, 44.72985993682029 ] } },
{ "type": "Feature", "properties": { "count": 90, "timestamp": "2020-05-11", "city": "North Monica", "state": "NE", "address": "88309 Sims Pike Suite 574", "year": 2023, "interdiction_date": "2023-10-19", "location_id": "shared_2023_16" }, "geometry": { "type": "Point", "coordinates": [ -75.744622689908709, 42.47377121402841 ] } },
{ "type": "Feature", "properties": { "count": 99, "timestamp": "2022-05-03", "city": "North Scottmouth", "state": "NJ", "address": "536 Mayer Parkways", "year": 2025, "interdiction_date": "2025-10-21", "location_id": "shared_2025_414" }, "geometry": { "type": "Point", "coordinates": [ -120.770974305435786, 37.482692867962413 ] } },
{ "type": "Feature", "properties": { "count": 41, "timestamp": "2020-10-06", "city": "Katrinaside", "state": "TN", "address": "53250 Barrett Cape Suite 690", "year": 2024, "interdiction_date": "2024-01-19", "location_id": "shared_2024_400" }, "geometry": { "type": "Point", "coordinates": [ -114.577963983120185, 33.856776850022904 ] } },
{ "type": "Feature", "properties": { "count": 88, "timestamp": "2021-08-20", "city": "Bakerbury", "state": "NM", "address": "67491 Kelly Ranch Apt. 243", "year": 2020, "interdiction_date": "2020-06-07", "location_id": "shared_2020_287" }, "geometry": { "type": "Point", "coordinates": [ -112.907555133409346, 42.384641394870414 ] } },
{ "type": "Feature", "properties": { "count": 12, "timestamp": "2021-10-09", "city": "Walkerborough", "state": "OH", "address": "8486 Massey Mountains", "year": 2023, "interdiction_date": "2023-04-15", "location_id": "shared_2023_29" }, "geometry": { "type": "Point", "coordinates": [ -110.874409154937027, 37.292639584352699 ] } },
{ "type": "Feature", "properties": { "count": 17, "timestamp": "2023-04-09", "city": "Lopezburgh", "state": "PA", "address": "673 Alexander Knoll", "year": 2023, "interdiction_date": "2023-06-27", "location_id": "shared_2023_154" }, "geometry": { "type": "Point", "coordinates": [ -101.638550750726239, 31.54083773449074 ] } },
{ "type": "Feature", "properties": { "count": 72, "timestamp": "2020-08-14", "city": "Ryantown", "state": "ND", "address": "623 Samantha Rue Suite 870", "year": 2024, "interdiction_date": "2024-04-22", "location_id": "shared_2024_106" }, "geometry": { "type": "Point", "coordinates": [ -90.308361719081901, 38.331154335413679 ] } },
{ "type": "Feature", "properties": { "count": 86, "timestamp": "2023-12-17", "city": "South Dianafort", "state": "VI", "address": "810 Cory Curve", "year": 2023, "interdiction_date": "2023-03-20", "location_id": "shared_2023_5" }, "geometry": { "type": "Point", "coordinates": [ -116.025439303918517, 46.854062089058004 ] } },
{ "type": "Feature", "properties": { "count": 37, "timestamp": "2024-10-16", "city": "Lake William", "state": "GU", "address": "093 Crystal Point", "year": 2022, "interdiction_date": "2022-09-11", "location_id": "shared_2022_171" }, "geometry": { "type": "Point", "coordinates": [ -80.494273305627075, 39.068834986693666 ] } },
{ "type": "Feature", "properties": { "count": 14, "timestamp": "2025-02-06", "city": "West Ericfort", "state": "PR", "address": "4651 Gardner Garden Apt. 629", "year": 2022, "interdiction_date": "2022-01-08", "location_id": "shared_2022_172" }, "geometry": { "type": "Point", "coordinates": [ -98.639467633642766, 30.42349102928052 ] } },
{ "type": "Feature", "properties": { "count": 98, "timestamp": "2021-01-27", "city": "Andersonmouth", "state": "NM", "address": "5123 West Villages Apt. 811", "year": 2023, "interdiction_date": "2023-02-04", "location_id": "shared_2023_108" }, "geometry": { "type": "Point", "coordinates": [ -90.378400598742729, 33.067396851365046 ] } },
{ "type": "Feature", "properties": { "count": 35, "timestamp": "2022-03-05", "city": "Dickersonton", "state": "RI", "address": "40711 Gill Junctions", "year": 2020, "interdiction_date": "2020-09-26", "location_id": "shared_2020_181" }, "geometry": { "type": "Point", "coordinates": [ -122.125639462318773, 43.763530928843764 ] } },
{ "type": "Feature", "properties": { "count": 40, "timestamp": "2023-01-18", "city": "Hernandezmouth", "state": "AL", "address": "202 Becker Brooks Apt. 806", "year": 2022, "interdiction_date": "2022-05-23", "location_id": "shared_2022_251" }, "geometry": { "type": "Point", "coordinates": [ -105.180948677899352, 34.360132554896865 ] } },
{ "type": "Feature", "properties": { "count": 19, "timestamp": "2020-10-31", "city": "Lake Jacobburgh", "state": "MO", "address": "6514 Medina Corner", "year": 2025, "interdiction_date": "2025-04-03", "location_id": "shared_2025_286" }, "geometry": { "type": "Point", "coordinates": [ -110.610521820363786, 37.359840143211166 ] } },
{ "type": "Feature", "properties": { "count": 68, "timestamp": "2024-06-18", "city": "East Benjamin", "state": "AZ", "address": "819 John Spur", "year": 2022, "interdiction_date": "2022-06-26", "location_id": "shared_2022_380" }, "geometry": { "type": "Point", "coordinates": [ -70.626532033982812, 44.702171413902377 ] } },
{ "type": "Feature", "properties": { "count": 21, "timestamp": "2025-01-26", "city": "Haynesmouth", "state": "VT", "address": "067 Tammy Ports", "year": 2024, "interdiction_date": "2024-05-16", "location_id": "shared_2024_166" }, "geometry": { "type": "Point", "coordinates": [ -79.781035624875273, 40.52192696431446 ] } },
{ "type": "Feature", "properties": { "count": 73, "timestamp": "2020-07-13", "city": "Hernandezmouth", "state": "AL", "address": "202 Becker Brooks Apt. 806", "year": 2022, "interdiction_date": "2022-05-23", "location_id": "shared_2022_251" }, "geometry": { "type": "Point", "coordinates": [ -105.180948677899352, 34.360132554896865 ] } },
{ "type": "Feature", "properties": { "count": 57, "timestamp": "2024-08-14", "city": "Briantown", "state": "PW", "address": "663 Johnson Trafficway", "year": 2022, "interdiction_date": "2022-12-13", "location_id": "shared_2022_350" }, "geometry": { "type": "Point", "coordinates": [ -109.462543746357696, 45.018026446517837 ] } },
{ "type": "Feature", "properties": { "count": 54, "timestamp": "2024-06-13", "city": "West Tiffany", "state": "GU", "address": "88350 Brown Drive Suite 573", "year": 2021, "interdiction_date": "2021-09-17", "location_id": "shared_2021_167" }, "geometry": { "type": "Point", "coordinates": [ -91.599313051959996, 42.618082540258648 ] } },
{ "type": "Feature", "properties": { "count": 45, "timestamp": "2021-12-16", "city": "North Sabrinaberg", "state": "WI", "address": "560 Howard Walks Apt. 270", "year": 2025, "interdiction_date": "2025-08-20", "location_id": "shared_2025_108" }, "geometry": { "type": "Point", "coordinates": [ -90.843552851631927, 40.316945426692527 ] } },
{ "type": "Feature", "properties": { "count": 76, "timestamp": "2022-05-05", "city": "North Rebeccatown", "state": "TN", "address": "3551 Kerr Village", "year": 2023, "interdiction_date": "2023-04-07", "location_id": "shared_2023_274" }, "geometry": { "type": "Point", "coordinates": [ -93.788484136499775, 34.262430063407344 ] } },
{ "type": "Feature", "properties": { "count": 29, "timestamp": "2022-10-29", "city": "Morgantown", "state": "VA", "address": "8227 Susan Corner Suite 677", "year": 2020, "interdiction_date": "2020-01-12", "location_id": "shared_2020_398" }, "geometry": { "type": "Point", "coordinates": [ -96.534778802559131, 34.801106686544166 ] } },
{ "type": "Feature", "properties": { "count": 27, "timestamp": "2024-07-20", "city": "Chungstad", "state": "ME", "address": "97059 Robert Groves Suite 676", "year": 2025, "interdiction_date": "2025-07-19", "location_id": "shared_2025_87" }, "geometry": { "type": "Point", "coordinates": [ -122.056241533811729, 38.771880880223065 ] } },
{ "type": "Feature", "properties": { "count": 46, "timestamp": "2022-01-01", "city": "Port Heathermouth", "state": "AZ", "address": "45489 Martinez Shores Suite 175", "year": 2022, "interdiction_date": "2022-01-07", "location_id": "shared_2022_275" }, "geometry": { "type": "Point", "coordinates": [ -95.877573148093276, 34.045186250286278 ] } },
{ "type": "Feature", "properties": { "count": 56, "timestamp": "2022-09-27", "city": "South Gregory", "state": "HI", "address": "5779 Santana Valley", "year": 2024, "interdiction_date": "2024-10-10", "location_id": "shared_2024_115" }, "geometry": { "type": "Point", "coordinates": [ -90.814352287182828, 46.828237577989 ] } },
{ "type": "Feature", "properties": { "count": 82, "timestamp": "2020-06-01", "city": "Port Jasonburgh", "state": "AL", "address": "327 Hayden Divide", "year": 2022, "interdiction_date": "2022-11-17", "location_id": "shared_2022_8" }, "geometry": { "type": "Point", "coordinates": [ -105.885590292057742, 39.491632399842985 ] } },
{ "type": "Feature", "properties": { "count": 42, "timestamp": "2024-08-26", "city": "East Joseborough", "state": "OR", "address": "682 Gonzalez Path Apt. 222", "year": 2025, "interdiction_date": "2025-07-09", "location_id": "shared_2025_94" }, "geometry": { "type": "Point", "coordinates": [ -105.856206310075123, 44.491684816806384 ] } },
{ "type": "Feature", "properties": { "count": 89, "timestamp": "2021-11-24", "city": "Toddfort", "state": "MP", "address": "7491 Lauren Fort Apt. 045", "year": 2024, "interdiction_date": "2024-05-20", "location_id": "shared_2024_412" }, "geometry": { "type": "Point", "coordinates": [ -92.630881609526369, 30.351648179271727 ] } },
{ "type": "Feature", "properties": { "count": 51, "timestamp": "2021-09-30", "city": "Andrewfort", "state": "MI", "address": "303 Melinda Tunnel Suite 960", "year": 2024, "interdiction_date": "2024-01-20", "location_id": "shared_2024_128" }, "geometry": { "type": "Point", "coordinates": [ -119.666628515416733, 43.086025060230071 ] } },
{ "type": "Feature", "properties": { "count": 100, "timestamp": "2022-11-19", "city": "Lake Robin", "state": "SC", "address": "7814 Hayes Port Suite 979", "year": 2024, "interdiction_date": "2024-03-05", "location_id": "shared_2024_202" }, "geometry": { "type": "Point", "coordinates": [ -103.873720710575469, 46.777297799145458 ] } },
{ "type": "Feature", "properties": { "count": 68, "timestamp": "2020-12-18", "city": "South Andrewland", "state": "MT", "address": "74923 Donna Lock", "year": 2020, "interdiction_date": "2020-11-16", "location_id": "shared_2020_383" }, "geometry": { "type": "Point", "coordinates": [ -103.995686823448779, 37.646957584574608 ] } },
{ "type": "Feature", "properties": { "count": 45, "timestamp": "2023-11-27", "city": "Port Cynthia", "state": "MP", "address": "75842 Mary Fork Suite 496", "year": 2025, "interdiction_date": "2025-05-26", "location_id": "shared_2025_357" }, "geometry": { "type": "Point", "coordinates": [ -98.397620420166518, 46.600579100256951 ] } },
{ "type": "Feature", "properties": { "count": 10, "timestamp": "2022-12-06", "city": "South Randall", "state": "WY", "address": "94357 Anthony Ridge", "year": 2022, "interdiction_date": "2022-04-21", "location_id": "shared_2022_397" }, "geometry": { "type": "Point", "coordinates": [ -113.754149975822287, 42.661922520856436 ] } },
{ "type": "Feature", "properties": { "count": 60, "timestamp": "2020-04-27", "city": "South Susan", "state": "DE", "address": "577 Todd Forge", "year": 2024, "interdiction_date": "2024-05-22", "location_id": "shared_2024_343" }, "geometry": { "type": "Point", "coordinates": [ -108.354018994602754, 45.639917635997534 ] } },
{ "type": "Feature", "properties": { "count": 73, "timestamp": "2024-07-17", "city": "Peterview", "state": "OH", "address": "2583 Austin Extension Apt. 432", "year": 2024, "interdiction_date": "2024-02-16", "location_id": "shared_2024_340" }, "geometry": { "type": "Point", "coordinates": [ -116.463364425752275, 36.683438174379219 ] } },
{ "type": "Feature", "properties": { "count": 81, "timestamp": "2020-04-22", "city": "Sanchezchester", "state": "AR", "address": "674 Billy Ports Suite 816", "year": 2024, "interdiction_date": "2024-02-14", "location_id": "shared_2024_21" }, "geometry": { "type": "Point", "coordinates": [ -86.281332052615312, 46.042013627971741 ] } },
{ "type": "Feature", "properties": { "count": 57, "timestamp": "2023-09-03", "city": "Angelaville", "state": "NE", "address": "10590 Kaitlin Flat Apt. 450", "year": 2025, "interdiction_date": "2025-01-22", "location_id": "shared_2025_161" }, "geometry": { "type": "Point", "coordinates": [ -113.927671294290079, 47.83429918782268 ] } },
{ "type": "Feature", "properties": { "count": 58, "timestamp": "2023-12-14", "city": "Alexandriaside", "state": "ME", "address": "099 Jerry River Apt. 488", "year": 2025, "interdiction_date": "2025-02-28", "location_id": "shared_2025_336" }, "geometry": { "type": "Point", "coordinates": [ -119.185023050357941, 42.09254696902898 ] } },
{ "type": "Feature", "properties": { "count": 79, "timestamp": "2022-04-08", "city": "Welchfurt", "state": "WI", "address": "73429 Smith Pine", "year": 2023, "interdiction_date": "2023-09-08", "location_id": "shared_2023_409" }, "geometry": { "type": "Point", "coordinates": [ -89.381694825565589, 44.22641477698626 ] } },
{ "type": "Feature", "properties": { "count": 20, "timestamp": "2024-09-06", "city": "Port Danielle", "state": "CA", "address": "37368 Smith Walks", "year": 2024, "interdiction_date": "2024-11-06", "location_id": "shared_2024_362" }, "geometry": { "type": "Point", "coordinates": [ -110.409287272377341, 43.805035092067378 ] } },
{ "type": "Feature", "properties": { "count": 6, "timestamp": "2020-09-11", "city": "Vanessafort", "state": "MO", "address": "516 Deborah Lakes", "year": 2025, "interdiction_date": "2025-05-08", "location_id": "shared_2025_285" }, "geometry": { "type": "Point", "coordinates": [ -92.449613424935848, 33.033148034954714 ] } },
{ "type": "Feature", "properties": { "count": 37, "timestamp": "2025-03-23", "city": "West Johnathan", "state": "AR", "address": "7917 Thomas Islands", "year": 2020, "interdiction_date": "2020-05-18", "location_id": "shared_2020_9" }, "geometry": { "type": "Point", "coordinates": [ -83.691860101620293, 37.828573651388908 ] } },
{ "type": "Feature", "properties": { "count": 77, "timestamp": "2022-10-15", "city": "Rubioside", "state": "MD", "address": "720 White Run", "year": 2025, "interdiction_date": "2025-04-15", "location_id": "shared_2025_385" }, "geometry": { "type": "Point", "coordinates": [ -106.737741521039311, 44.104460512117612 ] } },
{ "type": "Feature", "properties": { "count": 37, "timestamp": "2021-10-31", "city": "Chavezstad", "state": "CA", "address": "6740 Richardson Corners", "year": 2020, "interdiction_date": "2020-08-24", "location_id": "shared_2020_270" }, "geometry": { "type": "Point", "coordinates": [ -78.031647317912075, 36.009817716729032 ] } },
{ "type": "Feature", "properties": { "count": 78, "timestamp": "2022-08-11", "city": "Morganmouth", "state": "AK", "address": "836 Melissa Burgs Apt. 002", "year": 2023, "interdiction_date": "2023-02-28", "location_id": "shared_2023_392" }, "geometry": { "type": "Point", "coordinates": [ -98.028983969195963, 37.237734722831924 ] } },
{ "type": "Feature", "properties": { "count": 19, "timestamp": "2025-01-22", "city": "Glennbury", "state": "NY", "address": "9342 Lisa Islands", "year": 2020, "interdiction_date": "2020-06-28", "location_id": "shared_2020_224" }, "geometry": { "type": "Point", "coordinates": [ -114.692687776775756, 39.70371500489469 ] } },
{ "type": "Feature", "properties": { "count": 85, "timestamp": "2022-01-17", "city": "South Susan", "state": "DE", "address": "577 Todd Forge", "year": 2024, "interdiction_date": "2024-05-22", "location_id": "shared_2024_343" }, "geometry": { "type": "Point", "coordinates": [ -108.354018994602754, 45.639917635997534 ] } },
{ "type": "Feature", "properties": { "count": 95, "timestamp": "2024-06-28", "city": "Christybury", "state": "OH", "address": "178 Wolfe Keys Suite 442", "year": 2025, "interdiction_date": "2025-11-05", "location_id": "shared_2025_190" }, "geometry": { "type": "Point", "coordinates": [ -79.370408475210283, 36.202246061280924 ] } },
{ "type": "Feature", "properties": { "count": 86, "timestamp": "2021-09-08", "city": "Stantonview", "state": "NE", "address": "96375 Barrera Bypass Suite 698", "year": 2022, "interdiction_date": "2022-11-05", "location_id": "shared_2022_416" }, "geometry": { "type": "Point", "coordinates": [ -111.894548634586911, 31.601581548912243 ] } },
{ "type": "Feature", "properties": { "count": 40, "timestamp": "2025-03-02", "city": "Josephburgh", "state": "TN", "address": "1627 Sanders Mission Suite 440", "year": 2023, "interdiction_date": "2023-12-11", "location_id": "shared_2023_63" }, "geometry": { "type": "Point", "coordinates": [ -89.346328877465112, 40.496498903109824 ] } },
{ "type": "Feature", "properties": { "count": 99, "timestamp": "2021-07-18", "city": "West Kathleen", "state": "OK", "address": "39582 Kline Drive", "year": 2021, "interdiction_date": "2021-11-17", "location_id": "shared_2021_387" }, "geometry": { "type": "Point", "coordinates": [ -89.005610143845843, 42.953036541741355 ] } },
{ "type": "Feature", "properties": { "count": 65, "timestamp": "2025-01-07", "city": "Kirbyland", "state": "VT", "address": "143 Jeremy Unions Suite 506", "year": 2021, "interdiction_date": "2021-12-01", "location_id": "shared_2021_302" }, "geometry": { "type": "Point", "coordinates": [ -93.899511601904919, 40.538344402240625 ] } },
{ "type": "Feature", "properties": { "count": 5, "timestamp": "2021-04-19", "city": "Blanchardview", "state": "AZ", "address": "9264 Susan Islands Apt. 665", "year": 2020, "interdiction_date": "2020-07-22", "location_id": "shared_2020_121" }, "geometry": { "type": "Point", "coordinates": [ -82.614122819593803, 43.500245373306988 ] } },
{ "type": "Feature", "properties": { "count": 89, "timestamp": "2025-04-07", "city": "Wellsfort", "state": "WA", "address": "54640 Zachary Cliff", "year": 2021, "interdiction_date": "2021-06-03", "location_id": "shared_2021_20" }, "geometry": { "type": "Point", "coordinates": [ -97.816194385288469, 27.023708641313114 ] } },
{ "type": "Feature", "properties": { "count": 57, "timestamp": "2021-04-13", "city": "Lake Philipmouth", "state": "SC", "address": "250 Mack River Apt. 451", "year": 2024, "interdiction_date": "2024-12-17", "location_id": "shared_2024_335" }, "geometry": { "type": "Point", "coordinates": [ -113.487235706419625, 45.139813383032617 ] } },
{ "type": "Feature", "properties": { "count": 57, "timestamp": "2024-12-21", "city": "Jacobsside", "state": "AZ", "address": "774 Jackson Trail", "year": 2024, "interdiction_date": "2024-08-08", "location_id": "shared_2024_139" }, "geometry": { "type": "Point", "coordinates": [ -98.271096077564749, 43.01965153589515 ] } },
{ "type": "Feature", "properties": { "count": 65, "timestamp": "2021-02-27", "city": "Karimouth", "state": "CT", "address": "039 Duke Bridge", "year": 2023, "interdiction_date": "2023-12-14", "location_id": "shared_2023_136" }, "geometry": { "type": "Point", "coordinates": [ -74.236295095876585, 41.652358485243333 ] } },
{ "type": "Feature", "properties": { "count": 26, "timestamp": "2021-08-16", "city": "Jackburgh", "state": "ME", "address": "431 Russell Square", "year": 2022, "interdiction_date": "2022-04-20", "location_id": "shared_2022_330" }, "geometry": { "type": "Point", "coordinates": [ -92.818635668507852, 47.746877763235219 ] } },
{ "type": "Feature", "properties": { "count": 66, "timestamp": "2022-03-17", "city": "Sarahberg", "state": "OH", "address": "5920 Patrick Pass", "year": 2024, "interdiction_date": "2024-03-27", "location_id": "shared_2024_265" }, "geometry": { "type": "Point", "coordinates": [ -105.657937620580853, 44.670418724732009 ] } },
{ "type": "Feature", "properties": { "count": 29, "timestamp": "2020-12-24", "city": "Lake Markton", "state": "WA", "address": "996 Ariel Crossing Apt. 621", "year": 2025, "interdiction_date": "2025-05-11", "location_id": "shared_2025_181" }, "geometry": { "type": "Point", "coordinates": [ -113.208518131107951, 41.55445520988583 ] } },
{ "type": "Feature", "properties": { "count": 54, "timestamp": "2024-10-31", "city": "South Sara", "state": "IA", "address": "254 Jacob Circles Apt. 857", "year": 2025, "interdiction_date": "2025-03-25", "location_id": "shared_2025_250" }, "geometry": { "type": "Point", "coordinates": [ -101.716850701962983, 41.276600569901177 ] } },
{ "type": "Feature", "properties": { "count": 50, "timestamp": "2024-05-02", "city": "North Tiffanyville", "state": "NC", "address": "52337 Jennifer Pines Suite 326", "year": 2024, "interdiction_date": "2024-06-01", "location_id": "shared_2024_82" }, "geometry": { "type": "Point", "coordinates": [ -105.795640227438852, 38.407056107020267 ] } },
{ "type": "Feature", "properties": { "count": 13, "timestamp": "2025-01-31", "city": "Garciaside", "state": "MD", "address": "0989 Jamie Ridges Suite 275", "year": 2023, "interdiction_date": "2023-01-26", "location_id": "shared_2023_286" }, "geometry": { "type": "Point", "coordinates": [ -101.645835041306512, 36.366500138271348 ] } },
{ "type": "Feature", "properties": { "count": 90, "timestamp": "2023-10-10", "city": "West Brittanytown", "state": "WI", "address": "0181 Elizabeth Orchard", "year": 2025, "interdiction_date": "2025-02-04", "location_id": "shared_2025_150" }, "geometry": { "type": "Point", "coordinates": [ -72.491138889184811, 43.098689430290335 ] } },
{ "type": "Feature", "properties": { "count": 79, "timestamp": "2023-07-26", "city": "West Cody", "state": "PW", "address": "7604 Riley Motorway Suite 038", "year": 2024, "interdiction_date": "2024-03-21", "location_id": "shared_2024_124" }, "geometry": { "type": "Point", "coordinates": [ -99.444767506736895, 27.85745858356379 ] } },
{ "type": "Feature", "properties": { "count": 28, "timestamp": "2024-03-07", "city": "Lake Aliciafurt", "state": "KS", "address": "17907 Donald Mountains", "year": 2024, "interdiction_date": "2024-06-23", "location_id": "shared_2024_135" }, "geometry": { "type": "Point", "coordinates": [ -82.754028500431446, 36.446005348168129 ] } },
{ "type": "Feature", "properties": { "count": 68, "timestamp": "2022-02-27", "city": "Lake Luis", "state": "NJ", "address": "53780 Davis Springs", "year": 2022, "interdiction_date": "2022-02-17", "location_id": "shared_2022_253" }, "geometry": { "type": "Point", "coordinates": [ -107.98582163361128, 36.992424620376234 ] } },
{ "type": "Feature", "properties": { "count": 39, "timestamp": "2021-03-12", "city": "West Brandon", "state": "CT", "address": "4219 Lawson Centers", "year": 2023, "interdiction_date": "2023-10-21", "location_id": "shared_2023_36" }, "geometry": { "type": "Point", "coordinates": [ -92.996587775978398, 36.184260750701227 ] } },
{ "type": "Feature", "properties": { "count": 74, "timestamp": "2024-05-29", "city": "Patriciashire", "state": "AR", "address": "895 Jones River", "year": 2022, "interdiction_date": "2022-05-19", "location_id": "shared_2022_110" }, "geometry": { "type": "Point", "coordinates": [ -115.572125875670238, 34.141236510925623 ] } },
{ "type": "Feature", "properties": { "count": 95, "timestamp": "2023-07-20", "city": "South Eric", "state": "NY", "address": "612 Ward Camp", "year": 2025, "interdiction_date": "2025-09-04", "location_id": "shared_2025_366" }, "geometry": { "type": "Point", "coordinates": [ -83.545403931970156, 43.361366611101985 ] } },
{ "type": "Feature", "properties": { "count": 44, "timestamp": "2023-05-31", "city": "Lake Rachel", "state": "IN", "address": "4660 Pamela Extension", "year": 2023, "interdiction_date": "2023-11-23", "location_id": "shared_2023_349" }, "geometry": { "type": "Point", "coordinates": [ -101.200372416530541, 43.645502810477097 ] } },
{ "type": "Feature", "properties": { "count": 18, "timestamp": "2023-05-19", "city": "Morenoberg", "state": "IA", "address": "8666 Gomez Manors", "year": 2020, "interdiction_date": "2020-11-02", "location_id": "shared_2020_52" }, "geometry": { "type": "Point", "coordinates": [ -97.019173341916854, 32.900300544418748 ] } },
{ "type": "Feature", "properties": { "count": 25, "timestamp": "2022-02-24", "city": "South Carolynshire", "state": "VT", "address": "1345 Kimberly Brooks Apt. 672", "year": 2021, "interdiction_date": "2021-10-21", "location_id": "shared_2021_143" }, "geometry": { "type": "Point", "coordinates": [ -72.786192731456225, 44.72985993682029 ] } },
{ "type": "Feature", "properties": { "count": 84, "timestamp": "2021-11-19", "city": "Bryantport", "state": "WA", "address": "11659 Ochoa Cape", "year": 2022, "interdiction_date": "2022-01-19", "location_id": "shared_2022_282" }, "geometry": { "type": "Point", "coordinates": [ -109.840401700762598, 34.654547205583796 ] } },
{ "type": "Feature", "properties": { "count": 50, "timestamp": "2020-11-18", "city": "West Joseph", "state": "HI", "address": "458 Charles Orchard", "year": 2024, "interdiction_date": "2024-11-17", "location_id": "shared_2024_315" }, "geometry": { "type": "Point", "coordinates": [ -123.303159610232996, 39.833378290066761 ] } },
{ "type": "Feature", "properties": { "count": 64, "timestamp": "2025-02-03", "city": "South Alexanderbury", "state": "GA", "address": "32994 April Stravenue Apt. 867", "year": 2024, "interdiction_date": "2024-02-15", "location_id": "shared_2024_242" }, "geometry": { "type": "Point", "coordinates": [ -97.131131015289895, 45.293147393392566 ] } },
{ "type": "Feature", "properties": { "count": 11, "timestamp": "2022-05-17", "city": "Port Moniqueview", "state": "UT", "address": "48374 Bennett Meadow Apt. 442", "year": 2024, "interdiction_date": "2024-06-23", "location_id": "shared_2024_337" }, "geometry": { "type": "Point", "coordinates": [ -98.988963065403112, 28.876132006753387 ] } },
{ "type": "Feature", "properties": { "count": 24, "timestamp": "2022-06-25", "city": "Martinland", "state": "ID", "address": "005 Vanessa Harbor Suite 350", "year": 2022, "interdiction_date": "2022-04-14", "location_id": "shared_2022_153" }, "geometry": { "type": "Point", "coordinates": [ -104.710103101526997, 35.77090076829424 ] } },
{ "type": "Feature", "properties": { "count": 92, "timestamp": "2022-01-04", "city": "Lake Michellemouth", "state": "ME", "address": "6967 Williams Inlet", "year": 2025, "interdiction_date": "2025-03-24", "location_id": "shared_2025_416" }, "geometry": { "type": "Point", "coordinates": [ -111.986282800680328, 38.798132846081629 ] } },
{ "type": "Feature", "properties": { "count": 8, "timestamp": "2020-08-12", "city": "Dawsonfurt", "state": "TN", "address": "51742 Davis Green", "year": 2021, "interdiction_date": "2021-05-03", "location_id": "shared_2021_208" }, "geometry": { "type": "Point", "coordinates": [ -96.804810438445401, 32.665408541372159 ] } },
{ "type": "Feature", "properties": { "count": 50, "timestamp": "2020-04-23", "city": "Port Daniel", "state": "AS", "address": "04594 Gabrielle Squares Suite 935", "year": 2021, "interdiction_date": "2021-02-06", "location_id": "shared_2021_209" }, "geometry": { "type": "Point", "coordinates": [ -108.454811210079214, 35.760066894976696 ] } },
{ "type": "Feature", "properties": { "count": 58, "timestamp": "2020-07-10", "city": "Lake Kathleen", "state": "PW", "address": "06528 Elliott Underpass", "year": 2023, "interdiction_date": "2023-08-16", "location_id": "shared_2023_113" }, "geometry": { "type": "Point", "coordinates": [ -88.877269042048511, 42.784455941054574 ] } },
{ "type": "Feature", "properties": { "count": 84, "timestamp": "2023-07-02", "city": "New Brenda", "state": "LA", "address": "2398 Wood Island", "year": 2020, "interdiction_date": "2020-10-20", "location_id": "shared_2020_195" }, "geometry": { "type": "Point", "coordinates": [ -109.711562063627369, 40.635030926969051 ] } },
{ "type": "Feature", "properties": { "count": 95, "timestamp": "2024-02-01", "city": "Stevenview", "state": "AS", "address": "1095 Andrews Manors Apt. 369", "year": 2020, "interdiction_date": "2020-12-11", "location_id": "shared_2020_204" }, "geometry": { "type": "Point", "coordinates": [ -78.078670835103125, 42.490813103871375 ] } },
{ "type": "Feature", "properties": { "count": 63, "timestamp": "2023-08-26", "city": "Jonesfort", "state": "NH", "address": "466 Oconnor Cove", "year": 2022, "interdiction_date": "2022-11-18", "location_id": "shared_2022_104" }, "geometry": { "type": "Point", "coordinates": [ -102.790470018449071, 34.007437769274219 ] } },
{ "type": "Feature", "properties": { "count": 58, "timestamp": "2024-01-08", "city": "Buchanantown", "state": "IA", "address": "822 Roberson Harbor Apt. 659", "year": 2020, "interdiction_date": "2020-08-18", "location_id": "shared_2020_60" }, "geometry": { "type": "Point", "coordinates": [ -83.871112420023451, 36.444859889074536 ] } },
{ "type": "Feature", "properties": { "count": 12, "timestamp": "2021-07-18", "city": "South Amyside", "state": "DE", "address": "76922 Patrick Ways Apt. 356", "year": 2025, "interdiction_date": "2025-12-03", "location_id": "shared_2025_252" }, "geometry": { "type": "Point", "coordinates": [ -86.755840305088768, 42.557174186403437 ] } },
{ "type": "Feature", "properties": { "count": 86, "timestamp": "2022-12-25", "city": "North Tiffanyville", "state": "IN", "address": "067 John Mountains Suite 543", "year": 2021, "interdiction_date": "2021-09-17", "location_id": "shared_2021_228" }, "geometry": { "type": "Point", "coordinates": [ -109.44828012902164, 46.834187529227179 ] } },
{ "type": "Feature", "properties": { "count": 38, "timestamp": "2020-05-15", "city": "New Jeffreyland", "state": "NV", "address": "7987 Jennifer Key", "year": 2022, "interdiction_date": "2022-10-05", "location_id": "shared_2022_410" }, "geometry": { "type": "Point", "coordinates": [ -117.2707970021101, 47.096308018141507 ] } },
{ "type": "Feature", "properties": { "count": 90, "timestamp": "2024-08-06", "city": "South Jasonhaven", "state": "NH", "address": "848 Harold Underpass Apt. 473", "year": 2025, "interdiction_date": "2025-07-10", "location_id": "shared_2025_387" }, "geometry": { "type": "Point", "coordinates": [ -107.215973192959837, 46.587695410454359 ] } },
{ "type": "Feature", "properties": { "count": 48, "timestamp": "2022-10-15", "city": "Williamfurt", "state": "LA", "address": "929 Andrew Ford Suite 050", "year": 2021, "interdiction_date": "2021-06-14", "location_id": "shared_2021_63" }, "geometry": { "type": "Point", "coordinates": [ -90.424561604500269, 47.938907317456533 ] } },
{ "type": "Feature", "properties": { "count": 79, "timestamp": "2020-11-04", "city": "East Carolyn", "state": "OR", "address": "5567 Jacob Lodge", "year": 2022, "interdiction_date": "2022-03-04", "location_id": "shared_2022_366" }, "geometry": { "type": "Point", "coordinates": [ -77.99437064489544, 37.969197766742461 ] } },
{ "type": "Feature", "properties": { "count": 92, "timestamp": "2022-11-06", "city": "North Jonathantown", "state": "SD", "address": "9425 Jamie Hill Suite 737", "year": 2022, "interdiction_date": "2022-10-04", "location_id": "shared_2022_349" }, "geometry": { "type": "Point", "coordinates": [ -119.052048581433866, 38.075323699197874 ] } },
{ "type": "Feature", "properties": { "count": 53, "timestamp": "2020-07-26", "city": "Leeville", "state": "MD", "address": "093 Kelsey Expressway Suite 113", "year": 2025, "interdiction_date": "2025-06-27", "location_id": "shared_2025_375" }, "geometry": { "type": "Point", "coordinates": [ -102.680932829292018, 41.216914771499802 ] } },
{ "type": "Feature", "properties": { "count": 45, "timestamp": "2020-07-15", "city": "Byrdstad", "state": "NM", "address": "9932 Donna Highway Apt. 662", "year": 2025, "interdiction_date": "2025-12-13", "location_id": "shared_2025_313" }, "geometry": { "type": "Point", "coordinates": [ -111.974455084259617, 42.339320144599668 ] } },
{ "type": "Feature", "properties": { "count": 82, "timestamp": "2023-05-29", "city": "North Amy", "state": "IL", "address": "61478 Chambers Unions", "year": 2020, "interdiction_date": "2020-09-27", "location_id": "shared_2020_248" }, "geometry": { "type": "Point", "coordinates": [ -101.361756015259516, 45.879805565597096 ] } },
{ "type": "Feature", "properties": { "count": 16, "timestamp": "2022-03-03", "city": "Grayside", "state": "DE", "address": "668 Brianna Port Suite 969", "year": 2023, "interdiction_date": "2023-09-19", "location_id": "shared_2023_277" }, "geometry": { "type": "Point", "coordinates": [ -117.04906417158773, 41.269655870719006 ] } },
{ "type": "Feature", "properties": { "count": 42, "timestamp": "2022-08-18", "city": "Josephburgh", "state": "CT", "address": "21706 Russell Shore Apt. 070", "year": 2024, "interdiction_date": "2024-02-27", "location_id": "shared_2024_53" }, "geometry": { "type": "Point", "coordinates": [ -121.012214971649783, 39.696532191123211 ] } },
{ "type": "Feature", "properties": { "count": 82, "timestamp": "2024-10-01", "city": "South Michelle", "state": "NY", "address": "4549 Steven Pass", "year": 2021, "interdiction_date": "2021-08-05", "location_id": "shared_2021_380" }, "geometry": { "type": "Point", "coordinates": [ -105.862107751724011, 48.164542585829828 ] } },
{ "type": "Feature", "properties": { "count": 79, "timestamp": "2024-08-27", "city": "Annland", "state": "MS", "address": "10727 Moore Rapid", "year": 2024, "interdiction_date": "2024-07-16", "location_id": "shared_2024_430" }, "geometry": { "type": "Point", "coordinates": [ -118.450345958744805, 38.031896431130868 ] } },
{ "type": "Feature", "properties": { "count": 76, "timestamp": "2020-08-12", "city": "Adamshire", "state": "WI", "address": "94011 Chambers Alley", "year": 2022, "interdiction_date": "2022-11-25", "location_id": "shared_2022_370" }, "geometry": { "type": "Point", "coordinates": [ -123.972883507815922, 41.409724680595872 ] } },
{ "type": "Feature", "properties": { "count": 6, "timestamp": "2020-06-11", "city": "Lake Christopherton", "state": "WA", "address": "3359 Carpenter Ford Suite 461", "year": 2022, "interdiction_date": "2022-12-19", "location_id": "shared_2022_326" }, "geometry": { "type": "Point", "coordinates": [ -113.239125968779717, 47.572038495086872 ] } },
{ "type": "Feature", "properties": { "count": 74, "timestamp": "2021-06-07", "city": "East Madelineberg", "state": "MS", "address": "505 Hall Stream", "year": 2020, "interdiction_date": "2020-03-05", "location_id": "shared_2020_10" }, "geometry": { "type": "Point", "coordinates": [ -111.496801523008884, 42.234749165786326 ] } },